City,ongelukken,lat,lng
Dayton,7321,39.7805,-84.2003
Reynoldsburg,99,39.9588,-82.7943
Williamsburg,181,37.2693,-76.7076
Westerville,302,40.1241,-82.921
Columbus,5281,39.9862,-82.9855
Miamisburg,512,39.6322,-84.2724
Johnstown,112,40.326,-78.9194
Dublin,867,37.7161,-121.8963
Canal Winchester,84,39.8437,-82.8126
Lebanon,531,40.3412,-76.4228
Sabina,3,39.4903,-83.6345
Goshen,74,41.5743,-85.8309
Waynesville,64,35.4854,-82.9996
Springboro,45,39.5615,-84.2348
Carroll,28,42.0699,-94.8646
Independence,547,39.0871,-94.3501
Maple Heights,89,41.4094,-81.5625
Grove City,267,39.8654,-83.069
Findlay,54,41.0469,-83.6379
Fairborn,65,39.801,-84.0094
Piqua,17,40.1506,-84.2441
New Richmond,9,45.125,-92.5377
Batavia,101,41.8479,-88.3109
Galena,40,42.4218,-90.4293
Barberton,79,41.0095,-81.6037
Akron,860,41.0798,-81.5219
Mansfield,136,40.7656,-82.5275
Cleveland,1548,41.4764,-81.6805
Bethel,57,60.7928,-161.7917
Pataskala,41,40.011,-82.7155
Seville,25,41.0207,-81.8671
Bellville,5,29.9472,-96.2598
Troy,470,42.5817,-83.1457
Wilmington,826,34.2099,-77.8866
North Olmsted,41,41.4149,-81.919
Groveport,71,39.8586,-82.8978
Orient,24,41.1425,-72.2771
Tiro,1,40.9062,-82.769
Strongsville,43,41.3128,-81.8313
Beavercreek,12,39.731,-84.0624
Circleville,28,39.6063,-82.9334
Peebles,2,38.9463,-83.4094
Hurricane,56,37.1487,-113.3517
Xenia,50,39.6829,-83.9413
Elyria,39,41.376,-82.106
Pickerington,81,39.889,-82.7678
Burbank,1106,34.1879,-118.3235
Zanesville,35,39.9565,-82.0132
North Baltimore,27,41.1803,-83.6695
Mount Sterling,34,38.0648,-83.9472
Tipp City,27,39.9644,-84.1866
Moraine,127,39.6983,-84.2458
Hilliard,105,40.0353,-83.1578
Bowling Green,142,36.9716,-86.4378
Maineville,10,39.3126,-84.1986
Vermilion,6,41.4103,-82.3214
Milford,533,38.9091,-75.4227
Cambridge,279,42.3759,-71.1185
Delaware,174,40.2851,-83.0741
Moscow,5,46.7308,-116.9986
Oberlin,8,41.286,-82.2198
Sardinia,5,39.0071,-83.802
Urbancrest,1,39.9017,-83.0859
Brecksville,38,41.3079,-81.6192
Frankfort,70,38.1924,-84.8643
Blanchester,13,39.2934,-83.9795
Casstown,1,40.0528,-84.1285
Lima,49,40.741,-84.112
Amelia,12,39.0269,-84.2218
Newark,2151,40.7245,-74.1725
Springfield,2041,42.1155,-72.5395
Vandalia,117,39.8791,-84.193
Galloway,22,39.2339,-80.1277
Bloomingburg,10,39.6079,-83.3953
Gallipolis,3,38.8186,-82.1934
Lockbourne,58,39.8078,-82.9838
Milan,78,35.9126,-88.7554
Mason,44,39.3571,-84.3023
Millersport,18,39.898,-82.5387
New Carlisle,31,39.9446,-84.0257
Sunbury,71,40.8616,-76.7871
Owensville,1,38.3491,-91.4974
London,61,39.8935,-83.4375
Vallejo,1096,38.1125,-122.2342
Hayward,2544,37.6328,-122.0766
Walnut Creek,992,37.9024,-122.0399
Cupertino,597,37.3168,-122.0466
San Jose,7951,37.3012,-121.848
Pleasanton,1384,37.6663,-121.8805
San Francisco,3596,37.7558,-122.4449
Orinda,353,37.8808,-122.179
Livermore,1839,37.6868,-121.7607
Cotati,95,38.3278,-122.7092
Concord,1359,37.9722,-122.0016
Sunnyvale,903,37.3836,-122.0255
Sacramento,12011,38.5677,-121.4685
Oakland,5076,37.7904,-122.2166
Morgan Hill,337,37.1325,-121.6419
Petaluma,990,38.2423,-122.6266
Martinez,734,37.9985,-122.1161
Millbrae,192,37.5994,-122.4023
North Highlands,601,38.6713,-121.3721
Windsor,533,38.5422,-122.8089
Alamo,605,26.181,-98.1177
San Martin,96,37.0829,-121.5963
Healdsburg,149,38.6224,-122.8651
Brisbane,140,37.6902,-122.4021
Palo Alto,858,37.3905,-122.1468
Milpitas,791,37.4336,-121.8921
Davis,646,38.5553,-121.737
Elk Grove,782,38.4161,-121.3842
Half Moon Bay,254,37.4685,-122.4382
Menlo Park,423,37.4685,-122.1673
Tracy,1859,37.7269,-121.4523
Carmichael,490,38.6318,-121.3263
Granite Bay,148,38.7601,-121.1714
Union City,660,37.6032,-122.0181
Pleasant Hill,308,37.9539,-122.0759
San Mateo,1455,37.5522,-122.3121
Rancho Cordova,619,38.5737,-121.2527
Nevada City,202,39.2607,-121.0231
Vacaville,683,38.3587,-121.9673
Roseville,1233,38.7703,-121.3196
Isleton,136,38.1617,-121.6051
Lincoln,385,40.8099,-96.6784
El Dorado,58,33.2184,-92.664
Corte Madera,158,37.9238,-122.5128
San Leandro,1261,37.7074,-122.1599
Danville,502,37.8121,-121.9698
Los Gatos,1533,37.2304,-121.9562
Castro Valley,1055,37.7088,-122.0626
Stockton,1774,37.9765,-121.3109
Willits,88,39.4047,-123.3494
Santa Rosa,1756,38.4458,-122.7067
Los Altos,448,37.3684,-122.0965
Richmond,5006,37.5295,-77.4756
Dixon,568,38.4469,-121.825
Nice,9,39.1266,-122.8525
Antioch,1385,37.9787,-121.796
Angwin,24,38.5776,-122.4513
Novato,507,38.092,-122.5575
Burlingame,294,37.5859,-122.3667
Sunol,517,37.59,-121.8847
Placerville,435,38.7308,-120.7979
Fairfield,1952,38.2583,-122.0335
Scotts Valley,190,37.0555,-122.0118
Linden,457,40.6251,-74.2383
Santa Clara,931,37.3646,-121.968
San Pablo,661,37.9629,-122.3426
Pinole,330,37.9931,-122.2833
Redwood City,1196,37.5025,-122.2253
Salinas,744,36.6883,-121.6317
Soquel,96,36.9978,-121.9483
Monterey,184,36.5919,-121.8808
Fremont,2054,37.5265,-121.9843
Hercules,276,38.0064,-122.2564
Seaside,100,36.6224,-121.8199
Saratoga,183,37.2684,-122.0263
American Canyon,239,38.1796,-122.2583
Wilton,124,38.413,-121.2127
Pittsburg,770,38.0182,-121.8965
Grass Valley,393,39.2238,-121.0522
Santa Cruz,418,36.9789,-122.0346
Lodi,524,38.1218,-121.2932
Sonoma,446,38.2902,-122.4598
Auburn,1171,47.3039,-122.2108
Orangevale,195,38.6881,-121.2209
Emeryville,890,37.8382,-122.2932
South San Francisco,552,37.6538,-122.4196
Lathrop,388,37.809,-121.3131
Cameron Park,74,38.6738,-120.9872
San Bruno,435,37.6256,-122.4313
Modesto,757,37.6375,-121.0028
Berkeley,1239,37.8722,-122.276
Gilroy,421,37.0046,-121.5854
Escalon,87,37.7912,-120.9982
Byron,243,44.0378,-92.6409
Penryn,52,40.2016,-76.3675
Citrus Heights,295,38.6948,-121.288
El Dorado Hills,294,38.675,-121.049
El Cerrito,52,37.9196,-122.3025
Suisun City,49,38.2473,-122.0091
Fair Oaks,491,38.8653,-77.3586
Napa,816,38.2975,-122.301
Colfax,200,46.9029,-117.34
Rocklin,269,38.8075,-121.2489
Mather,11,38.5488,-121.2831
Mill Valley,269,37.9086,-122.5421
San Carlos,157,37.4982,-122.2677
Aptos,254,36.9912,-121.8934
San Ramon,368,37.7624,-121.9365
Woodland,328,38.6712,-121.75
Loomis,92,38.8093,-121.1955
Folsom,225,38.6668,-121.1422
Walnut Grove,63,33.7452,-83.8512
Rodeo,159,38.0367,-122.2526
San Lorenzo,429,37.6733,-122.1332
Sausalito,333,37.8581,-122.4933
Portola Valley,55,37.3711,-122.2202
Manteca,440,37.7927,-121.2264
Daly City,470,37.6862,-122.4685
Mokelumne Hill,46,38.3057,-120.7061
Occidental,26,38.4004,-122.9349
Newcastle,136,47.5304,-122.1633
Guerneville,67,38.5137,-122.9894
Calistoga,201,38.5818,-122.5824
Galt,267,38.2698,-121.3004
Crockett,196,31.3177,-95.4564
Glen Ellen,60,38.3564,-122.5412
Rohnert Park,143,38.3479,-122.6965
Jackson,940,32.3157,-90.2125
Ripon,216,37.7417,-121.131
Lafayette,2887,30.2082,-92.0325
Fulton,56,38.8551,-91.951
Sebastopol,209,38.4001,-122.8275
Forestville,88,38.8518,-76.8708
Hollister,398,36.8555,-121.3986
West Sacramento,656,38.5557,-121.5505
Acampo,181,38.1735,-121.2797
Valley Springs,157,38.1694,-120.826
Delhi,75,37.4306,-120.7759
Shingle Springs,231,38.6665,-120.9371
Ione,76,38.3613,-120.9422
Yountville,13,38.3963,-122.3671
French Camp,215,37.8803,-121.2803
Meadow Vista,12,39.0029,-121.0303
Penn Valley,155,39.1954,-121.1942
San Rafael,768,37.9905,-122.5221
Herald,12,38.2913,-121.2318
Castroville,142,36.7649,-121.7534
Camino,37,38.7422,-120.6808
Ben Lomond,42,37.0782,-122.0881
Moss Landing,63,36.8019,-121.7872
Aromas,69,36.8771,-121.6404
Elverta,43,38.7185,-121.4455
Soledad,103,36.4432,-121.3426
Yuba City,43,39.1357,-121.6383
Dos Palos,36,36.9854,-120.6338
Salida,164,37.7083,-121.0842
Lucerne,26,39.0698,-122.7746
Antelope,255,38.7153,-121.361
Rio Linda,174,38.6875,-121.4417
Benicia,309,38.0725,-122.1526
Lower Lake,18,38.9118,-122.6084
Winters,88,38.532,-121.9781
Oakdale,126,44.9876,-92.9641
Turlock,261,37.5053,-120.8588
Belmont,389,37.5154,-122.2953
Boulder Creek,77,37.1341,-122.1272
Carmel,351,39.965,-86.146
Mountain View,811,37.4001,-122.0796
Foresthill,51,39.0053,-120.8314
Mendota,75,36.7555,-120.3776
Keyes,2,37.5573,-120.9114
Firebaugh,66,36.8533,-120.4535
Monte Rio,18,38.4684,-123.0148
Campbell,296,37.2802,-121.9539
Larkspur,153,37.9393,-122.5312
Nicasio,70,38.0606,-122.7008
Bodega Bay,48,38.325,-123.0309
Brentwood,706,37.9356,-121.719
El Sobrante,155,33.8724,-117.4624
Newman,67,37.3156,-121.0212
Kelseyville,40,38.9704,-122.8328
Meridian,72,43.6116,-116.3977
Capitola,74,36.9773,-121.9537
Lakeport,49,39.0392,-122.9218
Rumsey,4,38.8902,-122.2404
Middletown,601,39.5033,-84.3659
Georgetown,234,30.666,-97.6966
Biggs,19,39.4102,-121.7134
Waterford,114,37.6429,-120.7553
Nicolaus,14,38.8982,-121.5729
Gonzales,105,30.2132,-90.9234
Patterson,188,37.4758,-121.1536
Rio Vista,123,38.1765,-121.7025
Dunnigan,56,38.8926,-121.9741
Copperopolis,34,37.9488,-120.6352
Alta,66,42.6717,-95.3045
Willows,46,39.5149,-122.1995
Marysville,411,48.0809,-122.1561
Winton,66,37.3854,-120.6173
Ukiah,89,39.1464,-123.2105
Penngrove,51,38.3006,-122.6707
Clarksburg,218,39.2246,-77.2659
Esparto,21,38.6934,-122.0241
Garden Valley,23,44.083,-115.9612
Oroville,169,39.4999,-121.5634
Pacifica,103,37.6113,-122.4782
Los Banos,144,37.063,-120.8406
La Grange,310,41.8072,-87.8741
Arbuckle,35,39.0141,-122.061
San Juan Bautista,184,36.845,-121.5371
Geyserville,58,38.7173,-122.9034
Jenner,38,38.451,-123.1203
Stanford,16,37.4252,-122.1674
San Andreas,72,38.1911,-120.6763
Dobbins,2,39.3657,-121.2128
Brooks,14,38.0656,-85.7177
Pollock Pines,59,38.7575,-120.5921
Hopland,46,38.9691,-123.1173
Discovery Bay,76,37.9063,-121.599
Ceres,183,37.5952,-120.962
Bay Point,74,38.0329,-121.9615
Little River,100,33.8786,-78.6393
Watsonville,384,36.9206,-121.7708
Diamond Springs,31,38.692,-120.8391
Felton,60,37.0392,-122.0808
Cool,46,32.8001,-98.0113
Pine Grove,53,40.5535,-76.386
Upper Lake,30,39.1655,-122.9052
Clearlake Oaks,36,39.0218,-122.6593
Woodside,359,37.4221,-122.2586
Atwater,113,37.3529,-120.5959
Sutter Creek,29,38.3827,-120.8106
Lockeford,38,38.1508,-121.1554
Coyote,30,36.1615,-106.6067
Pescadero,50,37.2507,-122.3725
La Honda,47,37.3182,-122.2651
Pioneer,62,41.6773,-84.5524
Gustine,127,37.2545,-120.9949
Ballico,6,37.4519,-120.7037
Cloverdale,119,38.7962,-123.0152
Fairfax,1141,38.8531,-77.2997
Plymouth,650,45.0225,-93.4617
Port Costa,2,38.0446,-122.185
Smartsville,18,39.2053,-121.2928
North San Juan,14,39.3719,-121.106
Courtland,26,36.7123,-77.062
Monte Sereno,5,37.2405,-121.9881
Applegate,28,43.3554,-82.6371
Freedom,22,36.9403,-121.7953
Mountain Ranch,14,38.2117,-120.5311
Merced,103,37.3057,-120.4779
Clearlake,5,38.9589,-122.633
Graton,5,38.4375,-122.866
Pacheco,21,37.9878,-122.07
Maxwell,17,39.2771,-122.1946
Kentfield,17,37.9481,-122.5497
Stevinson,26,37.3247,-120.8497
Somerset,179,40.5083,-74.501
Hughson,25,37.602,-120.866
Yorkville,35,41.6563,-88.4507
Clayton,197,35.659,-78.4498
Crows Landing,19,37.3944,-121.0752
Farmington,734,36.7555,-108.1823
Rough and Ready,4,39.234,-121.1381
Marina,48,36.681,-121.7892
Point Reyes Station,27,38.0847,-122.8093
Soda Springs,58,42.659,-111.5878
Moss Beach,40,37.5184,-122.5036
Redwood Valley,19,39.2689,-123.2023
Williams,105,39.1498,-122.1389
Dutch Flat,22,39.208,-120.8345
Oakley,39,37.9929,-121.6952
Browns Valley,15,45.5947,-96.8327
Sutter,6,39.1556,-121.7493
Gold River,13,38.6268,-121.2488
Downieville,6,39.5701,-120.8213
Fort Bragg,23,39.4399,-123.8013
Fiddletown,8,38.5069,-120.7602
Annapolis,453,38.9706,-76.5047
Rancho Murieta,5,38.5085,-121.0716
Muir Beach,8,37.8655,-122.5859
Sierra City,4,39.574,-120.6297
Livingston,242,37.3875,-120.7248
Jamestown,112,42.0976,-79.2367
Gridley,22,39.3622,-121.6971
Pleasant Grove,60,40.3716,-111.7412
Davenport,353,41.5565,-90.6053
Bodega,9,38.3488,-122.9711
Sheridan,55,44.7961,-106.9642
Alameda,8,37.7668,-122.267
Olivehurst,30,39.0795,-121.5566
Denair,29,37.5254,-120.7974
Colusa,21,39.2059,-122.0125
Marshall,114,32.537,-94.3515
Volcano,9,19.4864,-155.2774
Kenwood,14,39.2066,-84.375
Potter Valley,9,39.319,-123.1122
Comptche,3,39.2652,-123.5898
Cazadero,30,38.5265,-123.0978
Camptonville,23,39.4521,-121.0487
Wheatland,19,39.0287,-121.39
Chualar,7,36.5711,-121.5103
Grizzly Flats,3,38.6358,-120.5354
Stonyford,1,39.3695,-122.5438
Mendocino,6,39.311,-123.7908
Princeton,207,25.5396,-80.3971
Woodbridge,733,38.6409,-77.258
Butte City,1,43.607,-113.2408
Bolinas,12,37.9177,-122.7095
Madison,975,43.0822,-89.393
Tomales,8,38.247,-122.9054
Palermo,6,39.4313,-121.5225
Woodacre,5,38.0052,-122.6384
Montara,4,37.5483,-122.4923
Inverness,37,42.1153,-88.1019
Greenwood,741,39.6019,-86.1073
Glenn,10,33.1493,-85.2092
Albion,34,42.2478,-84.7572
Hickman,16,40.6248,-96.6307
Atherton,12,37.454,-122.2031
Albany,2210,42.6664,-73.7987
Dillon Beach,1,38.2436,-122.9562
East Palo Alto,11,37.4671,-122.1352
Knights Landing,12,38.798,-121.7175
West Point,50,41.122,-112.0995
Cobb,4,38.8356,-122.723
El Macero,2,38.544,-121.6852
Guinda,2,38.8274,-122.1984
Hillsborough,76,40.5069,-74.6523
San Anselmo,4,37.9821,-122.5699
Diablo,1,37.8408,-121.9565
Foster City,11,37.5553,-122.2659
Berry Creek,5,39.6314,-121.4052
Santa Barbara,724,34.4285,-119.7202
Ventura,655,32.2438,-107.6832
Simi Valley,298,34.2663,-118.749
Los Angeles,30343,34.1141,-118.4068
South El Monte,578,34.0493,-118.0484
La Puente,1393,34.0323,-117.9533
Orange,1699,33.8038,-117.8218
Santa Ana,1641,33.7367,-117.8819
Pomona,1967,34.0585,-117.7626
Riverside,4742,33.9381,-117.3949
Vista,551,33.1896,-117.2386
Temecula,985,33.4928,-117.1315
Running Springs,98,34.2104,-117.1147
Newhall,1177,41.9933,-91.9672
Inglewood,1544,33.9566,-118.3444
Downey,1716,33.9379,-118.1311
San Diego,10314,32.8313,-117.1222
Escondido,1159,33.1348,-117.0723
Mentone,71,34.0609,-117.1108
Ontario,2688,34.0393,-117.6064
Fontana,1329,34.0968,-117.4599
Colton,1114,34.0538,-117.3255
Redlands,984,34.0512,-117.1712
Moreno Valley,790,33.9244,-117.2045
Spring Valley,700,36.0952,-115.2636
Sun Valley,893,39.6104,-119.777
Cerritos,1717,33.8678,-118.0686
Anaheim,3539,33.839,-117.8574
Tustin,1081,33.7311,-117.8107
Highland,195,34.1113,-117.165
Santee,264,32.8554,-116.9851
Buena Park,745,33.8572,-118.0046
Torrance,1013,33.8346,-118.3416
Long Beach,4482,33.7977,-118.167
Montebello,407,34.0155,-118.1108
Norwalk,1764,33.9069,-118.0829
Pasadena,2087,29.6575,-95.1498
Oxnard,420,34.1964,-119.1815
Chino,774,33.9836,-117.6654
Irvine,2048,33.6772,-117.7738
Diamond Bar,1841,33.9992,-117.8161
Hacienda Heights,1264,33.997,-117.9727
El Monte,767,34.0739,-118.0291
Hemet,244,33.7341,-116.9969
Calabasas,504,34.1375,-118.6689
Glendale,1539,33.5791,-112.2311
Compton,1334,33.893,-118.2274
Lynwood,955,33.924,-118.2016
Encinitas,437,33.0492,-117.261
Pala,75,33.3639,-117.0675
Valencia,518,34.8053,-106.6868
Corona,3991,33.8616,-117.5649
Carlsbad,645,33.1246,-117.2834
Commerce,158,33.9963,-118.1519
Carson,1089,33.8374,-118.2559
Gardena,2060,33.8943,-118.3072
Whittier,3033,33.9678,-118.0188
Oceanside,612,33.2247,-117.3083
Perris,724,33.7898,-117.2233
Hesperia,544,34.3975,-117.3147
Lawndale,441,33.8884,-118.3531
Fullerton,644,33.8841,-117.9279
Lake Elsinore,546,33.6847,-117.3344
Santa Fe Springs,1055,33.9329,-118.0625
El Cajon,927,32.8017,-116.9604
Stevenson Ranch,173,34.3894,-118.5883
Valley Center,173,33.233,-117.0158
Culver City,1102,34.0058,-118.3968
San Pedro,270,25.9812,-97.5882
San Bernardino,3250,34.1416,-117.2943
National City,596,32.6654,-117.0983
Camarillo,460,34.223,-119.0321
San Ysidro,215,32.3568,-106.8129
Covina,597,34.0903,-117.8818
Bloomington,620,40.4757,-88.9703
Baldwin Park,2270,34.0829,-117.9722
Rialto,215,34.1175,-117.3892
Alhambra,753,34.084,-118.1355
Rosemead,495,34.0689,-118.0823
Brea,508,33.9254,-117.8655
Westminster,956,39.8837,-105.0624
Acton,655,34.4956,-118.1858
Walnut,429,34.0334,-117.8593
Mission Viejo,436,33.6096,-117.6551
Altadena,239,34.1927,-118.1346
Rowland Heights,1574,33.9716,-117.8912
Arcadia,650,34.1342,-118.0373
Menifee,184,33.6909,-117.1849
Chula Vista,650,32.6281,-117.0144
Moorpark,173,34.2861,-118.8768
Santa Monica,505,34.0235,-118.481
Murrieta,539,33.5719,-117.1909
Encino,715,34.6518,-105.4586
Topanga,107,34.0965,-118.6053
Upland,395,34.1178,-117.6604
Yorba Linda,117,33.889,-117.7714
Solana Beach,90,32.9943,-117.2574
Alpine,172,32.8439,-116.7585
Montclair,368,34.0715,-117.6981
Santa Clarita,357,34.4175,-118.4964
Seal Beach,671,33.7542,-118.0714
La Mesa,559,32.7703,-117.0204
Big Bear City,154,34.2536,-116.7903
Westlake Village,277,34.1369,-118.822
South Pasadena,167,34.1103,-118.1573
Grand Terrace,184,34.0312,-117.3132
Huntington Beach,234,33.696,-118.0018
Mission Hills,670,39.0141,-94.6172
San Fernando,183,34.2886,-118.4362
Hawthorne,1320,33.9147,-118.3476
Bellflower,582,33.888,-118.1271
Lake Arrowhead,45,34.2531,-117.1944
Ramona,314,33.0474,-116.8766
Beaumont,226,30.0849,-94.1451
Garden Grove,802,33.7787,-117.9601
Rancho Cucamonga,765,34.1247,-117.5667
Julian,94,33.0735,-116.5889
Glendora,993,34.1449,-117.8467
San Gabriel,319,34.0949,-118.099
Paramount,531,33.8977,-118.1651
San Marcos,691,33.135,-117.1743
Azusa,894,34.1386,-117.9124
San Dimas,762,34.1082,-117.809
South Gate,443,33.9447,-118.1926
Huntington Park,227,33.98,-118.2167
Oak Park,241,41.8872,-87.7899
North Hills,530,40.7765,-73.6778
Woodland Hills,635,40.0132,-111.6558
Monterey Park,444,34.0497,-118.1326
Fallbrook,761,33.3693,-117.2259
Calimesa,92,33.9874,-117.0542
Victorville,252,34.5277,-117.3536
Placentia,153,33.8807,-117.8553
Bonsall,162,33.2764,-117.1941
San Clemente,668,33.4499,-117.6102
Fountain Valley,432,33.7105,-117.9514
West Covina,1397,34.0555,-117.9113
Del Mar,275,32.9635,-117.2624
Thousand Palms,146,33.815,-116.3545
Banning,117,33.946,-116.8992
Pico Rivera,45,33.9901,-118.0888
Monrovia,627,34.165,-117.9921
Costa Mesa,968,33.6667,-117.9135
San Juan Capistrano,456,33.5008,-117.6544
San Jacinto,73,33.797,-116.9916
Homeland,76,33.7459,-117.1132
La Mirada,96,33.9025,-118.0093
Bell Gardens,392,33.9663,-118.155
Norco,195,33.9252,-117.5498
Artesia,274,33.8676,-118.0805
Littlerock,80,34.5232,-117.9808
Chatsworth,271,34.7808,-84.7835
Laguna Hills,167,33.5918,-117.6991
Agoura Hills,297,34.151,-118.7609
Desert Hot Springs,189,33.955,-116.5429
Indio,70,33.7346,-116.2346
Duarte,353,34.161,-117.9504
Stanton,18,33.8003,-117.9935
Ojai,106,34.4488,-119.2469
Winchester,395,39.1735,-78.1746
Castaic,431,34.4818,-118.6316
Silverado,53,33.7482,-117.6285
Rancho Santa Fe,81,33.024,-117.1992
Lakeside,337,30.1356,-81.7674
Coronado,46,32.6649,-117.1604
Potrero,21,32.6131,-116.6068
Ladera Ranch,162,33.5492,-117.6417
Fillmore,149,34.3989,-118.9174
Marina del Rey,66,33.9765,-118.4486
Palm Springs,34,33.8017,-116.5382
Descanso,26,32.8696,-116.6279
Pine Valley,52,32.8415,-116.5107
Cabazon,133,33.9127,-116.7828
Palmdale,503,34.5944,-118.1057
Loma Linda,86,34.045,-117.2498
Carpinteria,196,34.3962,-119.5118
Cathedral City,11,33.8362,-116.4642
La Verne,195,34.1207,-117.7703
Aguanga,64,33.4522,-116.8555
Bonita,150,32.6651,-117.0296
Newport Beach,61,33.6151,-117.8668
Wildomar,124,33.6173,-117.2582
Lemon Grove,248,32.7331,-117.0344
Malibu,320,34.037,-118.7839
Lucerne Valley,51,34.4427,-116.9021
Phelan,216,34.4398,-117.5248
Laguna Niguel,87,33.5275,-117.705
Nuevo,46,33.8011,-117.1414
Trabuco Canyon,45,33.6782,-117.5939
Palm Desert,136,33.7378,-116.3695
Lakewood,589,39.6977,-105.1172
Boulevard,46,32.664,-116.2896
Mountain Center,42,33.7112,-116.7248
Goleta,273,34.4361,-119.8594
Santa Paula,141,34.3545,-119.0656
La Palma,87,33.8504,-118.0407
Winnetka,56,42.1064,-87.7421
Vernon,47,34.1479,-99.3
La Habra,20,33.9282,-117.9515
Signal Hill,104,33.803,-118.1681
Claremont,517,34.1259,-117.7153
Sun City,230,33.6165,-112.2819
Montrose,344,38.4689,-107.859
Wrightwood,64,34.3495,-117.63
Yucaipa,79,34.0336,-117.0429
Chino Hills,164,33.9508,-117.7254
Jamul,94,32.7184,-116.8709
El Segundo,158,33.917,-118.4018
Crestline,65,34.2486,-117.2887
Rolling Hills Estates,16,33.7783,-118.3509
Thousand Oaks,151,34.1914,-118.8756
Llano,77,30.7509,-98.6763
Campo,35,32.6394,-116.4744
Anza,25,33.5678,-116.6966
Los Alamitos,316,33.7971,-118.0592
Oak Hills,23,45.5405,-122.8413
Venice,484,27.1184,-82.4137
Lake Forest,676,33.6605,-117.6714
Laguna Beach,33,33.5455,-117.7613
Aliso Viejo,31,33.5792,-117.7289
Santa Rosa Valley,11,34.2459,-118.9018
Joshua Tree,33,34.1236,-116.3128
Somis,93,34.2652,-118.9984
Midway City,49,33.7452,-117.9849
San Marino,21,34.1224,-118.1132
Temple City,20,34.1022,-118.0579
Sugarloaf,8,40.0189,-105.4078
Maywood,113,33.9886,-118.1877
La Habra Heights,5,33.9603,-117.951
Oak View,44,34.403,-119.299
Apple Valley,70,34.5352,-117.2109
Redondo Beach,73,33.8577,-118.3765
Hawaiian Gardens,89,33.8304,-118.0728
Yucca Valley,38,34.1234,-116.4216
Whitewater,104,42.8372,-88.7341
Blue Jay,5,39.2308,-84.7441
Irwindale,2,34.1121,-117.9636
Morongo Valley,35,34.0724,-116.5627
Universal City,41,29.5521,-98.3074
Poway,54,32.9871,-117.0201
Bell,5,33.9801,-118.1798
Bermuda Dunes,19,33.7435,-116.2874
West Hollywood,11,34.0883,-118.3719
Lompoc,55,34.6618,-120.4714
Borrego Springs,11,33.241,-116.3571
Northridge,18,39.9971,-83.777
Cherry Valley,28,33.9797,-116.9694
Rancho Santa Margarita,48,33.6318,-117.5988
Rancho Mirage,17,33.7635,-116.4271
Big Bear Lake,15,34.2429,-116.8951
Summerland,32,34.4244,-119.5938
Bell Canyon,4,34.2082,-118.6876
Cypress,64,33.8171,-118.0386
Dana Point,5,33.4733,-117.6967
Beverly Hills,35,34.0786,-118.4021
Rancho Palos Verdes,3,33.7554,-118.3634
Port Hueneme,2,34.1618,-119.2036
La Quinta,2,33.6536,-116.2785
Adelanto,15,34.5814,-117.4397
Piru,12,34.4064,-118.8019
Hidden Hills,4,34.1637,-118.6612
Lytle Creek,6,34.2499,-117.5044
West Hills,6,40.8199,-73.4339
Sunset Beach,1,33.892,-78.5107
Imperial Beach,2,32.5693,-117.118
Manhattan Beach,7,33.8894,-118.3967
Indian Wells,1,33.7036,-116.3396
Cudahy,6,33.9631,-118.183
Lomita,9,33.7933,-118.3175
Villa Park,937,41.8865,-87.9779
Lake Sherwood,2,34.134,-118.8804
Tampa,5576,27.9945,-82.4447
Miami,14382,25.784,-80.2101
Hialeah,2019,25.8696,-80.3045
Pompano Beach,1036,26.2428,-80.1312
Orlando,13258,28.4773,-81.337
Palm Coast,120,29.5389,-81.2457
Miami Beach,210,25.8171,-80.1396
West Palm Beach,1583,26.7469,-80.132
Clearwater,1919,27.979,-82.7623
Lake Worth,669,32.813,-97.4306
Bradenton,1799,27.4901,-82.5757
Winter Park,830,28.5989,-81.3442
Palm Bay,147,27.9631,-80.6593
Merritt Island,231,28.3139,-80.6708
Pinellas Park,419,27.8589,-82.7078
Fort Myers,2680,26.6194,-81.8302
Boca Raton,871,26.3752,-80.108
Hollywood,1598,26.0293,-80.1679
Palmetto,414,27.5251,-82.5749
Fort Lauderdale,4313,26.1412,-80.1464
Boynton Beach,583,26.5281,-80.0811
Christmas,104,28.5605,-81.0201
Fellsmere,66,27.7241,-80.5974
Sarasota,2004,27.3387,-82.5432
Vero Beach,175,27.6463,-80.393
Wesley Chapel,558,28.2106,-82.3238
Titusville,114,28.5727,-80.8193
Plant City,407,28.014,-82.1201
Windermere,104,28.5028,-81.5377
Gibsonton,184,27.826,-82.3761
Cape Coral,161,26.6443,-81.9957
Port Richey,273,28.2759,-82.7254
New Port Richey,716,28.2468,-82.717
Melbourne,506,28.1086,-80.6627
Spring Hill,1262,28.4798,-82.53
North Fort Myers,554,26.7244,-81.8485
Brooksville,993,28.5404,-82.3903
Lutz,491,28.1396,-82.4467
Tarpon Springs,299,28.1493,-82.7623
Palm Harbor,760,28.0847,-82.7481
Lakewood Ranch,38,27.4185,-82.3948
Bonita Springs,447,26.3558,-81.7859
Seffner,238,27.9981,-82.2735
Lakeland,442,28.0557,-81.9545
Odessa,136,31.8801,-102.3448
Micanopy,188,29.506,-82.2806
Sun City Center,48,27.715,-82.3569
Groveland,91,28.6098,-81.8246
Kissimmee,1529,28.3041,-81.4169
Estero,318,26.4276,-81.7951
Lehigh Acres,734,26.612,-81.6388
Palm Beach Gardens,314,26.8466,-80.1679
Coral Gables,19,25.7037,-80.2715
Okahumpka,33,28.7459,-81.8962
Delray Beach,449,26.455,-80.0905
Maitland,257,28.6295,-81.3718
Miami Gardens,300,25.9433,-80.2426
North Port,181,27.0576,-82.1977
Deerfield Beach,364,26.305,-80.1277
San Antonio,8191,29.4632,-98.5238
Naples,477,26.1504,-81.7936
Zephyrhills,172,28.2409,-82.1797
Riverview,354,27.8227,-82.3023
Dunedin,129,28.0329,-82.7862
Davie,74,26.0789,-80.287
Seminole,374,27.8435,-82.784
Oldsmar,109,28.0506,-82.6698
Dade City,238,28.3565,-82.1942
Apollo Beach,114,27.7618,-82.4003
Homestead,510,25.4665,-80.4472
Osprey,49,27.1914,-82.48
Wildwood,193,38.58,-90.6698
Minneola,8,28.6067,-81.7322
Rockledge,160,28.3203,-80.736
Bunnell,7,29.4193,-81.3231
Lantana,9,26.5834,-80.0564
Ellenton,200,27.5269,-82.5258
Parrish,57,33.7323,-87.2802
Sanford,382,28.7891,-81.2757
Fort Pierce,269,27.4255,-80.3431
Mims,76,28.6929,-80.8468
Stuart,177,27.1959,-80.2444
Largo,666,27.9088,-82.7712
Winter Garden,332,28.5421,-81.5967
Zolfo Springs,20,27.4926,-81.7869
Hudson,634,41.2399,-81.4408
Deltona,55,28.905,-81.2137
Eustis,41,28.8563,-81.6771
Tavares,13,28.792,-81.7352
Apopka,355,28.7015,-81.5316
Pomona Park,9,29.5015,-81.5936
Punta Gorda,259,26.8941,-82.0513
Sebastian,32,27.7822,-80.4819
Holiday,265,28.1864,-82.7429
Altamonte Springs,357,28.6615,-81.3953
Orange City,67,28.9348,-81.2881
Leesburg,538,28.7672,-81.8962
Rocky Point,42,40.9357,-72.9364
Sorrento,66,30.1828,-90.8674
Longwood,221,28.7014,-81.3487
Homosassa,63,28.7849,-82.6079
Brandon,318,27.9367,-82.3
Ocala,568,29.178,-82.1511
Bushnell,95,28.686,-82.1165
Clermont,182,28.5325,-81.7208
Gotha,73,28.5306,-81.5191
Cocoa,338,28.382,-80.7675
Immokalee,72,26.4253,-81.4251
Ormond Beach,212,29.2985,-81.1014
Safety Harbor,31,28.008,-82.6964
Hernando Beach,14,28.4753,-82.6612
Daytona Beach,400,29.1995,-81.0982
Sebring,106,27.477,-81.453
Englewood,415,39.6468,-104.9942
Port Charlotte,93,26.9918,-82.114
Nokomis,105,27.1241,-82.4354
Wimauma,68,27.6964,-82.3034
Oviedo,178,28.658,-81.1872
Lake Mary,171,28.7592,-81.336
Thonotosassa,92,28.0464,-82.291
Alva,58,36.7895,-98.6649
Polk City,91,41.7779,-93.7134
Valrico,102,27.9193,-82.2293
Moore Haven,12,26.8338,-81.0984
Ocoee,143,28.5796,-81.5332
New Smyrna Beach,82,29.0249,-80.9652
Lake Wales,25,27.9195,-81.5961
Okeechobee,185,27.2413,-80.8298
Miramar,16,25.9773,-80.3351
Jupiter,199,26.92,-80.1128
Palm City,111,27.1735,-80.2862
Satsuma,9,30.8578,-88.0631
Bartow,35,27.8868,-81.8214
Belleair,5,27.9365,-82.8114
Haines City,16,28.1102,-81.6157
Lecanto,18,28.8359,-82.488
Pembroke Pines,145,26.0128,-80.3382
Lady Lake,16,28.9241,-81.9299
Dover,411,39.161,-75.5202
Indialantic,8,28.0871,-80.57
Miami Lakes,40,25.9125,-80.3214
Lake Placid,35,27.3037,-81.371
Sidell,5,39.9097,-87.8236
Cape Canaveral,10,28.3933,-80.6049
Auburndale,60,28.0963,-81.8012
Mount Dora,89,28.8142,-81.6344
Hallandale Beach,23,25.9854,-80.1423
Oxford,143,34.3627,-89.5336
Weeki Wachee,26,28.517,-82.5774
Ruskin,178,27.7065,-82.4209
The Villages,14,28.9034,-81.9887
Grant,14,45.0825,-92.909
Clewiston,16,26.7529,-80.9399
Wauchula,27,27.5469,-81.8102
Port Orange,81,29.1085,-81.0137
Crystal River,35,28.8964,-82.5991
Flagler Beach,18,29.4716,-81.1303
Casselberry,23,28.6624,-81.3217
Sunrise,12,26.1547,-80.2997
Lake Alfred,9,28.1041,-81.7264
Frostproof,5,27.7494,-81.5252
Fort Meade,2,39.1061,-76.7437
Altoona,111,40.5082,-78.4007
Palmetto Bay,22,25.6219,-80.3221
Umatilla,25,45.9119,-119.3133
Crescent City,38,41.7728,-124.1902
Winter Springs,28,28.6889,-81.2703
Reddick,53,29.3687,-82.1976
Bradenton Beach,2,27.4651,-82.6958
Venus,11,32.4317,-97.1018
Plantation,22,26.1259,-80.2617
Fort Myers Beach,66,26.4308,-81.9146
Jensen Beach,30,27.2437,-80.2423
Interlachen,2,29.6203,-81.8963
North Miami Beach,59,25.9302,-80.1659
Avon Park,20,27.5898,-81.5068
Belleair Beach,5,27.9242,-82.8359
Anna Maria,1,27.5297,-82.7339
Hobe Sound,81,27.0729,-80.1425
West Miami,6,25.7578,-80.2969
Kenneth City,8,27.8156,-82.7162
University Park,9,32.8506,-96.7937
Coral Springs,9,26.2702,-80.2591
Hernando,25,34.85,-89.9921
Webster,304,29.5317,-95.1188
Dunnellon,16,29.0572,-82.4289
Belle Isle,3,28.4723,-81.3491
Malabar,25,27.9884,-80.5781
Pierson,18,29.2401,-81.4559
Silver Springs,44,39.3826,-119.2148
Winter Haven,19,28.0118,-81.7014
Gainesville,454,29.6804,-82.3459
Floral City,8,28.7065,-82.309
Oak Hill,6,37.9844,-81.1277
Center Hill,4,28.6334,-81.9986
De Leon Springs,14,29.1172,-81.3517
Edgewater,52,28.9594,-80.9406
Surfside,4,25.8787,-80.125
Margate,6,26.2466,-80.2119
Longboat Key,2,27.3926,-82.6341
Gulfport,76,30.4274,-89.0704
Williston,61,48.1814,-103.6364
Treasure Island,9,27.774,-82.7663
Geneva,31,41.8833,-88.3242
Zellwood,15,28.7294,-81.5895
Fruitland Park,8,28.8599,-81.9177
Satellite Beach,19,28.1782,-80.6019
Mulberry,17,39.1975,-84.2511
Ona,12,27.483,-81.9097
Royal Palm Beach,11,26.7038,-80.2241
Palatka,19,29.6493,-81.6705
Belleair Bluffs,8,27.9198,-82.8191
Medley,10,25.8647,-80.3516
Belleview,19,29.0608,-82.0565
Summerfield,38,38.9042,-76.8678
Patrick AFB,10,28.2346,-80.6079
Madeira Beach,16,27.7985,-82.7887
Cutler Bay,47,25.5765,-80.3356
Matlacha,7,26.6303,-82.0718
Chuluota,5,28.638,-81.1159
Cocoa Beach,11,28.3327,-80.6274
Key Biscayne,8,25.6908,-80.1653
Crystal Beach,7,42.8095,-77.2582
Lauderdale Lakes,7,26.1682,-80.2017
Doral,16,25.8152,-80.3565
Miami Shores,25,25.867,-80.1779
Pahokee,2,26.8202,-80.6621
Melbourne Beach,19,28.0668,-80.561
Sunny Isles Beach,4,25.9385,-80.1246
Lake Helen,22,28.983,-81.2309
North Miami,58,25.9008,-80.1686
Oakland Park,20,26.178,-80.1528
South Miami,7,25.7079,-80.2952
Wellington,50,26.6461,-80.2699
Mascotte,3,28.611,-81.9106
Kenansville,27,34.9598,-77.9659
Astor,7,29.1635,-81.5349
Montverde,4,28.5971,-81.6786
Grand Island,87,40.9218,-98.3586
St. Petersburg,48,27.7931,-82.6652
Bokeelia,13,26.68,-82.1409
Weston,154,26.1006,-80.4054
Kathleen,15,28.1224,-82.0387
Cortez,7,37.3503,-108.5768
Coconut Creek,4,26.2803,-80.1842
Lake Panasoffkee,18,28.785,-82.1258
Captiva,5,26.5205,-82.191
Paisley,6,28.985,-81.5404
Indian Rocks Beach,10,27.8961,-82.8444
Yalaha,2,28.751,-81.8194
Trinity,16,28.1809,-82.6582
Tamarac,9,26.2056,-80.2539
Indiantown,27,27.0376,-80.491
Fern Park,6,28.6485,-81.3458
North Lauderdale,3,26.2113,-80.2209
Astatula,2,28.7065,-81.7346
Anthony,3,32.0131,-106.5984
Fairburn,156,33.5496,-84.5914
Atlanta,16427,33.7628,-84.422
Decatur,1576,39.8557,-88.9342
Tucker,403,33.8436,-84.2024
Lawrenceville,249,33.9523,-83.9932
Iva,94,34.3071,-82.6636
Augusta,2846,33.3645,-82.0708
Peachtree City,35,33.3942,-84.571
Duluth,461,46.7756,-92.1393
Newberry,346,34.2813,-81.601
Beech Island,196,33.4288,-81.8905
Ridge Spring,35,33.8453,-81.6617
Ware Shoals,31,34.3894,-82.239
North Augusta,494,33.5214,-81.9547
Aiken,862,33.5303,-81.7271
Grantville,43,33.2371,-84.8293
Hephzibah,286,33.2906,-82.0994
Graniteville,206,33.5646,-81.8078
Clinton,460,38.7499,-76.9063
Waterloo,161,42.4918,-92.3522
Marietta,1129,33.9533,-84.5422
Dacula,69,33.9815,-83.8952
Stockbridge,459,33.5254,-84.2295
Alpharetta,414,34.0704,-84.2738
Canton,513,40.8078,-81.3676
Smyrna,383,33.8633,-84.5168
Kennesaw,460,34.026,-84.6177
Anderson,1074,40.0891,-85.6892
Social Circle,17,33.6505,-83.7116
Woodstock,233,34.1026,-84.5091
Norcross,533,33.9379,-84.2065
Powder Springs,25,33.8659,-84.684
Cumming,149,34.2063,-84.1339
Buford,308,34.1192,-83.9903
Sumner,109,47.2189,-122.2338
Fayetteville,212,36.0714,-94.1661
Coleman,7,31.8317,-99.4223
Forest Park,483,33.6209,-84.359
Stone Mountain,136,33.8035,-84.1723
Austell,133,33.8201,-84.6451
Newnan,167,33.3767,-84.7761
Forsyth,123,33.0352,-83.939
Molena,4,33.0122,-84.5006
Donalds,37,34.3766,-82.3467
Tifton,62,31.4624,-83.5203
Leesville,130,31.1324,-93.2673
Fort Valley,61,32.552,-83.8817
Winder,31,33.9917,-83.7218
Saluda,149,34.0009,-81.7713
Clarkston,382,33.8117,-84.2403
Jefferson,206,34.1373,-83.6021
Milledgeville,29,33.0874,-83.2414
Gray,49,29.678,-90.7831
McDonough,309,33.4397,-84.1505
Lavonia,38,34.4341,-83.1079
Villa Rica,60,33.7294,-84.9177
Temple,164,31.1068,-97.3891
Prosperity,104,37.8385,-81.1986
Cartersville,194,34.1644,-84.8009
Adairsville,30,34.3709,-84.9212
Macon,400,32.8065,-83.6974
Conyers,175,33.6646,-83.9966
Covington,479,39.0334,-84.5166
Roswell,122,34.0391,-84.3513
Lithonia,232,33.7129,-84.106
Harlem,42,33.4275,-82.3131
Belton,183,38.8192,-94.5335
Lithia Springs,157,33.7811,-84.6487
Perry,107,32.472,-83.7283
Monetta,50,33.8501,-81.61
Washington,1520,38.9047,-77.0163
Hodges,105,34.334,-87.9299
Pine Mountain,12,32.8522,-84.8521
Brooklet,10,32.3897,-81.6668
Greensboro,1200,36.0956,-79.8271
Hawkinsville,6,32.2965,-83.4815
Laurens,166,34.5022,-82.0207
Brookhaven,46,33.8743,-84.3314
Snellville,53,33.8562,-84.0038
Starr,88,34.3774,-82.6954
Ninety Six,72,34.1696,-82.0239
Pembroke,45,34.6766,-79.1935
Due West,7,34.3335,-82.3885
Pomaria,83,34.2677,-81.4192
Acworth,124,34.0566,-84.6716
Braselton,47,34.1087,-83.8127
Hoschton,44,34.0853,-83.7594
Flowery Branch,35,34.1712,-83.9142
Oakwood,20,39.7202,-84.1734
Abbeville,84,29.9751,-92.1265
Mountville,59,40.0402,-76.4339
Suwanee,87,34.0508,-84.0686
Douglasville,91,33.7384,-84.7054
Glennville,5,31.9379,-81.9305
New Ellenton,22,33.4199,-81.6826
Edgefield,60,33.787,-81.9291
Mableton,25,33.8133,-84.5655
Warner Robins,34,32.5961,-83.6527
Jonesboro,54,35.8212,-90.6791
Riverdale,177,33.5639,-84.4103
Warrenville,727,41.8209,-88.1857
Aragon,3,34.0458,-85.057
Fair Play,74,37.6331,-93.5769
Poulan,1,31.5145,-83.7898
Statesboro,12,32.4375,-81.7751
Peachtree Corners,25,33.967,-84.232
Modoc,5,33.7192,-82.2174
Morrow,137,33.5815,-84.3391
Jasper,84,38.3933,-86.9402
Athens,73,33.9508,-83.3689
Grovetown,98,33.4503,-82.2073
Rutledge,17,36.2757,-83.5311
Ward,10,35.0117,-91.9577
Wagener,20,33.6512,-81.3625
Good Hope,3,33.7706,-117.2771
Lilburn,43,33.8897,-84.1364
Locust Grove,77,33.3446,-84.1071
Cordele,21,31.9563,-83.7694
Calhoun Falls,18,34.0933,-82.5963
Alapaha,5,31.3832,-83.2237
Hiram,20,33.8777,-84.771
Summerville,689,33.0016,-80.1799
Cornelia,14,34.517,-83.5311
Carrollton,389,32.989,-96.8999
Bogart,16,33.9479,-83.5341
Mount Carmel,16,38.4187,-87.7695
Chula,8,39.9219,-93.4776
White,27,34.2823,-84.7481
Johnston,261,41.691,-93.7234
Rome,116,34.2662,-85.1863
Honea Path,75,34.4476,-82.395
Vienna,327,38.8996,-77.2597
Conley,82,33.6399,-84.3376
Lexington,1747,38.0423,-84.4587
Bradley,38,41.1641,-87.8452
Dallas,29112,32.7935,-96.7667
Monroe,311,32.5185,-92.0774
Silver Creek,7,42.5427,-79.1678
Franklin,238,35.92,-86.8516
Homer,31,59.653,-151.5255
Trenton,714,40.2237,-74.7641
Flovilla,7,33.2524,-83.903
Calhoun,57,34.491,-84.9386
Grayson,9,33.8904,-83.9576
Cross Hill,22,34.3045,-81.9836
Senoia,23,33.3082,-84.5546
Winston,17,43.1201,-123.4246
Griffin,80,33.2418,-84.2748
Sylvester,16,31.53,-83.8338
LaGrange,52,33.0274,-85.0384
Lyons,37,41.8119,-87.8191
Gloverville,7,33.5274,-81.8144
Maysville,19,38.6455,-83.7911
Cuthbert,1,31.7713,-84.794
Sugar Hill,10,34.108,-84.0558
Rex,60,34.8508,-79.0468
Joanna,14,34.4149,-81.8086
Clarks Hill,12,40.2472,-86.7243
Alto,19,34.4649,-83.5727
Silverstreet,19,34.2177,-81.7146
Unadilla,31,32.2583,-83.7356
Fort Stewart,7,31.8811,-81.6131
Plum Branch,4,33.8482,-82.2587
Moreland,16,43.2195,-112.4378
Cochran,5,32.3875,-83.3523
Rockmart,14,34.0103,-85.044
Soperton,38,32.3782,-82.5945
Loganville,63,33.8353,-83.8958
Swainsboro,16,32.5866,-82.3345
Juliette,14,33.1109,-83.8094
Barnwell,25,33.2419,-81.3659
Pitts,1,31.9462,-83.5417
Dawsonville,46,34.4362,-84.125
Norwood,77,39.1605,-84.4535
Parrott,4,37.2168,-80.6241
Warrenton,89,38.7176,-77.7976
Woodbury,251,44.9057,-92.923
Carnesville,29,34.3729,-83.2328
Hampton,321,37.0551,-76.363
Lumpkin,4,32.0487,-84.7981
Barnesville,39,33.0508,-84.1528
Buckhead,30,31.8613,-81.2623
Salley,6,33.5671,-81.3038
Cedartown,7,34.0223,-85.2479
Tyrone,21,33.4752,-84.5941
Hull,5,43.1894,-96.1342
Wrens,4,33.207,-82.3878
Blythe,35,33.6219,-114.6195
Elberton,16,34.1063,-82.8705
Waynesboro,50,38.0674,-78.9014
Ellaville,1,32.238,-84.3089
Canon,3,34.3455,-83.1107
Thomson,51,33.4679,-82.4968
Pinehurst,29,35.1922,-79.4684
Hazlehurst,14,31.8651,-82.5994
Jenkinsburg,5,33.3224,-84.0389
Keysville,12,37.039,-78.4804
Eastman,9,32.1973,-83.1714
Statham,11,33.9647,-83.6018
Midland,94,32.0243,-102.1147
Roopville,10,33.4566,-85.1304
Alma,15,43.3799,-84.6556
Ludowici,9,31.7093,-81.7452
Elko,63,40.8381,-115.7678
Watkinsville,25,33.861,-83.4072
Waco,153,31.5599,-97.1882
Milner,4,33.1176,-84.1931
Pendergrass,13,34.1646,-83.6827
Kingston,230,41.9295,-73.9968
Richland,61,46.2824,-119.2939
Emerson,16,40.9748,-74.024
Appling,7,33.5588,-82.3183
Reynolds,3,32.5608,-84.0943
Dudley,14,35.2661,-78.0382
East Dublin,8,32.5468,-82.8675
Metter,21,32.3958,-82.0621
Register,15,32.3658,-81.8845
Talmo,6,34.1831,-83.721
Bremen,37,33.7085,-85.1495
Greenville,2634,34.8354,-82.3646
Avondale Estates,22,33.7699,-84.2648
Hartwell,7,34.3496,-82.9289
Martin,16,36.3385,-88.8513
Bowersville,1,34.373,-83.0838
Baxley,11,31.7641,-82.3509
Talbotton,4,32.6773,-84.5406
Americus,9,32.0736,-84.2248
Ball Ground,14,34.3426,-84.3637
Twin City,3,32.5829,-82.1575
Camak,6,33.4526,-82.6462
Wrightsville,53,32.727,-82.7191
Whitmire,18,34.5041,-81.6144
Preston,27,42.0989,-111.8802
Thomaston,26,32.8907,-84.3272
Sharpsburg,18,40.494,-79.9249
Jeffersonville,55,38.3376,-85.7026
Bethlehem,297,40.6266,-75.3679
Fitzgerald,10,31.7134,-83.2514
Hogansville,18,33.1674,-84.9027
Sparta,51,43.9377,-90.8131
Fairmount,13,43.0414,-76.2485
Hamilton,125,39.3939,-84.5653
Townsend,53,39.3968,-75.6943
Crawford,1,33.8831,-83.1551
Davisboro,2,32.9826,-82.6032
Comer,4,34.0625,-83.1263
Lagrange,16,41.6481,-85.418
Sycamore,21,41.9957,-88.6821
Andersonville,6,39.4338,-83.019
Montezuma,8,32.2997,-84.0246
Portal,1,32.5383,-81.9297
Dewy Rose,2,34.1681,-82.9395
Danielsville,3,34.1238,-83.2202
Oglethorpe,4,32.2934,-84.0625
Bluffton,118,32.2135,-80.9316
Omaha,9750,41.2627,-96.0529
Council Bluffs,353,41.2369,-95.8516
Red Oak,34,32.5212,-96.7866
Bellevue,1913,47.5951,-122.1535
Elkhorn,230,42.6713,-88.5377
Cedar Rapids,284,41.9662,-91.6783
Boys Town,113,41.2558,-96.1292
Papillion,352,41.1511,-96.0665
Windsor Heights,53,41.6045,-93.7128
Plattsmouth,20,41.0054,-95.894
Gretna,203,29.9101,-90.0515
La Vista,192,41.1816,-96.0664
Hornick,1,42.2305,-96.0972
Bennington,50,41.3682,-96.1616
Casey,5,39.3031,-87.9897
Des Moines,1265,41.5725,-93.6105
Marion,165,42.0451,-91.585
Ankeny,107,41.7288,-93.6031
Ashland,273,37.6942,-122.1159
Urbandale,166,41.639,-93.7812
Brooklyn,3573,40.6501,-73.9496
Valley,32,32.8088,-85.181
Dexter,57,36.7928,-89.9632
Granger,15,41.7374,-86.1348
Coralville,32,41.699,-91.5967
Woodward,10,36.4247,-99.4058
Adair,12,41.5004,-94.6434
Clive,38,41.6147,-93.798
Missouri Valley,32,41.5592,-95.9028
Sioux City,122,42.4959,-96.3901
Earlham,12,41.4943,-94.122
Blair,29,41.5416,-96.1359
Marengo,45,42.2299,-88.6163
Adel,31,31.1264,-83.4229
Indianola,11,41.3629,-93.5652
North Liberty,60,41.7438,-91.6112
Iowa City,134,41.6559,-91.5303
Salix,12,40.2964,-78.7594
Arlington,3014,32.6998,-97.125
Latimer,5,30.4974,-88.8607
Pacific Junction,14,41.018,-95.7994
Neola,12,41.4498,-95.6173
Union,428,38.4399,-90.9927
Crescent,43,35.9518,-97.5948
Steamboat Rock,2,42.4081,-93.0662
Shelby,26,35.2904,-81.5451
Waukee,30,41.5985,-93.8869
Evansdale,7,42.4635,-92.2766
Ames,80,42.0256,-93.6217
South Sioux City,13,42.4627,-96.4125
Glenwood,12,41.541,-87.6118
Carlisle,196,40.2,-77.2034
Mitchellville,16,38.9358,-76.8146
Ottumwa,18,41.0195,-92.4186
Blencoe,4,41.9303,-96.082
Anita,20,41.4437,-94.766
Minden,33,32.6187,-93.2762
Osceola,13,35.6942,-89.9934
Story City,18,42.1866,-93.5863
Newton,175,42.3316,-71.2085
Bondurant,22,41.6985,-93.4556
Runnells,2,41.5141,-93.3601
Swisher,54,41.8442,-91.6938
Sigourney,1,41.334,-92.2044
Lamoni,1,40.6201,-93.9308
Iowa Falls,8,42.519,-93.2662
Swan,5,41.4676,-93.3096
Avoca,13,41.3382,-75.7422
Nevada,8,37.8445,-94.3492
Victor,52,43.6014,-111.1108
Cedar Falls,9,42.5195,-92.4536
West Des Moines,11,41.5521,-93.7806
Minburn,5,41.7576,-94.0285
Fort Dodge,5,42.5098,-94.1751
Clear Lake,18,43.1347,-93.374
Center Point,14,33.6447,-86.6852
Knoxville,635,35.9692,-83.9496
Sioux Center,1,43.0748,-96.1707
Elkhart,30,41.6916,-85.9627
Boone,21,36.2111,-81.6669
Saint Charles,383,34.0806,-80.2249
Malvern,105,34.3734,-92.8205
Waverly,43,42.7401,-84.6354
Plainfield,204,40.6154,-74.4157
Whiting,13,41.6731,-87.4842
Grimes,18,41.6779,-93.7947
Mount Pleasant,130,32.8537,-79.8203
Emmetsburg,7,43.1145,-94.68
Malcom,4,41.7061,-92.5553
Webster City,6,42.4622,-93.8168
Underwood,12,41.3807,-95.6821
Mondamin,11,41.71,-96.0215
Tama,1,41.9648,-92.5743
Albia,1,41.0268,-92.8038
Van Horne,7,42.0083,-92.0897
Watkins,9,45.3153,-94.412
Menlo,11,34.4835,-85.4776
Odebolt,2,42.3119,-95.2545
Mingo,9,41.7662,-93.2825
Brayton,6,41.5447,-94.9302
Hiawatha,10,42.0547,-91.6911
Alden,10,42.5115,-93.3805
Dows,12,42.6592,-93.5012
Grinnell,20,41.7359,-92.7244
Syracuse,1318,43.0407,-76.1437
Carter Lake,1,41.2884,-95.9171
Truro,1,41.2098,-93.8467
Fort Calhoun,4,41.4563,-96.0264
Humboldt,3,35.8271,-88.9058
Rudd,6,43.1262,-92.9047
Floyd,6,36.9118,-80.3184
Sergeant Bluff,8,42.3978,-96.3517
Oskaloosa,6,41.2922,-92.6404
Ogden,434,41.2279,-111.9682
Offutt AFB,7,41.1207,-95.9209
Le Mars,17,42.781,-96.1733
Modale,6,41.6182,-96.0121
Gladbrook,1,42.1861,-92.7151
Little Sioux,5,41.8082,-96.0272
Montour,1,41.9803,-92.7151
Bloomfield,321,36.7401,-107.9734
Traer,1,42.1895,-92.4639
Herman,2,45.8105,-96.1414
Dunkerton,1,42.5678,-92.1609
Strawberry Point,3,42.6805,-91.5349
Winnebago,6,42.2671,-89.234
Thurman,6,40.8201,-95.7488
Mason City,15,43.1487,-93.1997
Treynor,2,41.232,-95.6063
Manly,4,43.2883,-93.2008
Lytton,3,42.4233,-94.8609
Prairie City,4,41.5954,-93.2393
Glen Ellyn,789,41.8666,-88.0629
Lombard,1500,41.8741,-88.0157
Waukegan,880,42.3698,-87.8716
Hinsdale,529,41.8007,-87.9273
McHenry,25,42.3387,-88.2932
Bartlett,816,35.2337,-89.8195
Wheaton,1234,41.8561,-88.1085
Chicago,6634,41.8375,-87.6866
Oak Brook,1009,41.8373,-87.9516
Elmhurst,1483,41.8973,-87.9432
Elgin,2347,42.0383,-88.324
Coal City,3,41.2772,-88.2803
Berwyn,126,41.8433,-87.7909
Elmwood Park,118,41.9225,-87.8163
North Chicago,226,42.3172,-87.8595
Libertyville,758,42.287,-87.967
Lisle,757,41.7918,-88.0888
Sugar Grove,32,41.7759,-88.4481
Round Lake,280,42.3435,-88.1059
Vernon Hills,252,42.234,-87.9608
Evergreen Park,11,41.7213,-87.7013
Grayslake,685,42.3405,-88.0338
Algonquin,8,42.1629,-88.3159
Naperville,297,41.748,-88.1659
Mundelein,447,42.2693,-88.0102
Wadsworth,330,41.0279,-81.7323
Clarendon Hills,126,41.7981,-87.9568
Sturtevant,42,42.6995,-87.9019
Chicago Ridge,35,41.7034,-87.7795
Bridgeton,318,38.7673,-90.4275
Roselle,499,41.9809,-88.0861
Aurora,709,39.7083,-104.7237
Willowbrook,704,33.9209,-118.2356
Highland Park,898,42.1823,-87.8104
Woodridge,659,41.737,-88.0409
Belvidere,70,42.2543,-88.8649
Hanover Park,855,41.9818,-88.1446
Downers Grove,841,41.7949,-88.0172
Winfield,271,37.274,-96.95
West Chicago,818,41.896,-88.2253
Addison,238,41.9313,-88.0085
Crystal Lake,29,42.2333,-88.3351
Calumet City,103,41.6134,-87.5505
Oak Lawn,35,41.7139,-87.7528
Markham,57,41.6,-87.6904
Hazel Crest,93,41.5732,-87.6899
Justice,81,41.7495,-87.8345
Montgomery,310,32.3482,-86.2668
Carol Stream,834,41.9181,-88.1307
Bettendorf,55,41.5657,-90.4765
West Alton,11,38.8665,-90.2085
Poplar Grove,4,42.3517,-88.8353
River Forest,11,41.895,-87.8194
Maryland Heights,154,38.7189,-90.4749
Bolingbrook,166,41.6901,-88.1021
Dundee,108,28.0115,-81.5995
Hoffman Estates,108,42.064,-88.1468
Palatine,102,42.118,-88.043
Hazelwood,232,38.7931,-90.3899
Lemont,95,41.6695,-87.9838
Lake Zurich,738,42.1956,-88.087
Melrose Park,87,41.903,-87.8636
Caseyville,15,38.6302,-90.0339
Des Plaines,367,42.0345,-87.9008
Oakbrook Terrace,107,41.8538,-87.9691
Roscoe,30,42.4256,-89.0084
Palos Hills,10,41.6986,-87.8266
Wauconda,214,42.2749,-88.1359
Mokena,40,41.5327,-87.8781
Riverwoods,32,42.1723,-87.8951
Arnold,92,39.0437,-76.4974
Effingham,62,39.1205,-88.5509
Gurnee,686,42.3708,-87.9392
Rock Island,20,41.4699,-90.5827
Zion,235,42.4603,-87.8511
Morton,48,40.6135,-89.4669
Harwood Heights,4,41.9663,-87.8057
Matteson,31,41.5095,-87.7468
Calumet Park,11,41.665,-87.6577
Rolling Meadows,81,42.0747,-88.0252
Schaumburg,173,42.0308,-88.0838
Barrington,604,42.1515,-88.1281
Hillside,363,41.8675,-87.9019
Arlington Heights,92,42.0955,-87.9826
Tinley Park,113,41.567,-87.8049
Chesterfield,439,38.6589,-90.5803
Burr Ridge,71,41.7485,-87.92
East Peoria,84,40.6736,-89.5419
Eureka,116,40.7943,-124.1564
Marseilles,5,41.3099,-88.685
Urbana,19,40.1107,-88.1973
Posen,99,41.629,-87.6859
Darien,547,41.7448,-87.9822
Collinsville,61,38.677,-90.0063
Northbrook,212,42.1292,-87.8352
Streamwood,93,42.0209,-88.1779
Lake in the Hills,5,42.1913,-88.3477
Glencoe,37,42.1347,-87.7641
Ingleside,164,27.8703,-97.2075
Lake Villa,289,42.4184,-88.0836
Channahon,33,41.421,-88.2599
South Elgin,57,41.9906,-88.3135
Fairview Heights,10,38.5974,-90.0053
Fox Lake,72,42.4239,-88.1844
Beloit,48,42.523,-89.0184
Florissant,116,38.7996,-90.3269
Pecatonica,4,42.3086,-89.3577
Volo,42,42.3299,-88.1598
Buffalo Grove,203,42.1675,-87.9615
Elk Grove Village,60,42.0064,-87.9921
Bridgeview,104,41.7403,-87.8067
Lansing,474,42.7142,-84.5601
Hammond,152,41.6168,-87.4909
Greenup,8,39.2484,-88.1598
Lincolnwood,29,42.0054,-87.733
Hainesville,18,42.3415,-88.0686
Wood Dale,11,41.9668,-87.9808
Greenview,1,40.0849,-89.7406
Chicago Heights,45,41.51,-87.6345
Mount Carroll,3,42.0948,-89.977
Round Lake Beach,57,42.3791,-88.0811
Huntley,20,42.1599,-88.433
Niles,327,42.0278,-87.8099
Itasca,55,41.9772,-88.0183
Alsip,85,41.6701,-87.7368
Cicero,113,41.8445,-87.7593
Cary,342,35.7819,-78.8195
Lindenhurst,84,40.6858,-73.371
Hickory Hills,25,41.7248,-87.828
Beach Park,112,42.426,-87.8583
Farmer City,4,40.248,-88.6423
Dolton,50,41.6284,-87.5979
New Lenox,22,41.5095,-87.9703
Joliet,125,41.5188,-88.1499
Pleasant Prairie,29,42.5266,-87.8895
Carlock,5,40.5835,-89.1288
Dwight,4,41.0983,-88.4249
Rockford,144,42.2596,-89.064
New Baden,2,38.5367,-89.7071
Okawville,2,38.4344,-89.548
Braidwood,1,41.2695,-88.2235
Edwardsville,15,38.7922,-89.9874
Ottawa,18,41.3555,-88.8261
Kenosha,62,42.5865,-87.8773
Altamont,9,42.198,-121.7248
High Ridge,47,38.4608,-90.5338
Romeoville,39,41.6318,-88.0997
Le Claire,15,41.5963,-90.3686
Dubuque,14,42.5002,-90.707
South Holland,139,41.5977,-87.6022
Lake Bluff,74,42.2826,-87.851
Rock Falls,10,41.7724,-89.6928
Bourbonnais,7,41.183,-87.8784
Hampshire,35,42.1124,-88.5118
Orland Park,29,41.6075,-87.8619
Spring Grove,128,42.4545,-88.2399
Island Lake,36,42.2782,-88.1999
Franklin Park,50,41.9361,-87.8794
Walworth,12,42.5305,-88.5939
Ballwin,35,38.595,-90.55
Skokie,131,42.036,-87.74
Lincolnshire,179,42.1958,-87.9182
Old Mill Creek,28,42.4321,-87.9786
Williams Bay,1,42.5788,-88.5457
Delavan,16,42.6282,-88.6323
Worth,27,41.6877,-87.7916
Morris,23,41.3749,-88.4304
Peoria,260,40.752,-89.6154
Kell,2,38.4912,-88.9032
Janesville,64,42.6854,-89.0135
Centralia,47,46.7223,-122.9696
Crete,5,41.4401,-87.6235
Homer Glen,13,41.6043,-87.9497
Country Club Hills,23,41.5636,-87.7251
Granite City,37,38.7296,-90.1268
Dalzell,26,34.0189,-80.4297
Columbia,3837,34.0378,-80.9036
Bloomingdale,48,27.8784,-82.2624
Mount Prospect,18,42.0641,-87.9375
Bellwood,30,41.8829,-87.8762
Glenview,38,42.0825,-87.8214
Richton Park,6,41.4816,-87.7387
Wataga,1,41.0253,-90.2754
Ringwood,9,41.1065,-74.2749
Willow Springs,17,41.7333,-87.8859
Peotone,13,41.3308,-87.7956
Annawan,2,41.3958,-89.8882
Schiller Park,77,41.9586,-87.8693
Marine,4,38.7868,-89.7789
Rochelle,15,41.9197,-89.0629
Machesney Park,9,42.3666,-89.0266
Minooka,24,41.4507,-88.2791
Peru,15,40.7593,-86.0756
Caledonia,98,42.7986,-87.8762
Stone Park,4,41.9033,-87.8805
Rockdale,7,30.6543,-97.0089
Westmont,30,33.9417,-118.3018
Park Ridge,43,42.0125,-87.8436
Wheeling,54,40.0752,-80.6951
Long Grove,105,42.1967,-88.0058
Metamora,9,40.7951,-89.3672
Glen Carbon,18,38.758,-89.9822
Deerfield,147,42.1654,-87.8516
Munster,6,41.5468,-87.504
Kirkland,371,47.697,-122.2057
Hawthorn Woods,3,42.2313,-88.0624
Palos Heights,7,41.6637,-87.7958
Bensenville,49,41.9579,-87.9442
Prospect Heights,5,42.1039,-87.9267
Valley Park,43,38.5513,-90.4923
Normal,11,40.5217,-88.9884
Hazleton,16,40.9505,-75.9725
Beecher,5,43.0903,-83.7039
South Beloit,5,42.4825,-89.026
Lostant,5,41.1252,-89.0668
Manteno,10,41.247,-87.8457
Utica,205,43.0962,-75.2261
Pekin,106,40.5678,-89.6251
Champaign,16,40.1142,-88.2737
Ashkum,6,40.8783,-87.9533
Westchester,60,25.7471,-80.3523
East Dundee,1,42.0972,-88.2545
Lanark,3,42.1019,-89.8336
Clare,2,43.8259,-84.763
Fox River Grove,7,42.1955,-88.2147
Oswego,32,41.6834,-88.3372
Minier,1,40.4336,-89.3139
Palos Park,6,41.6679,-87.8891
North Aurora,39,41.8086,-88.3414
Morton Grove,56,42.0423,-87.789
Wilmette,57,42.0771,-87.7282
Harvey,28,41.6076,-87.652
Fenton,487,42.7994,-83.7144
Thornton,140,39.9197,-104.9438
Glendale Heights,45,41.9196,-88.0785
Mattoon,7,39.4774,-88.3623
Wayne,321,42.2774,-83.3877
Kildeer,17,42.183,-88.0488
Hodgkins,2,41.7659,-87.8613
Shorewood,27,41.5169,-88.2146
Mascoutah,20,38.5192,-89.8045
Belleville,210,38.5164,-89.99
Evanston,15,42.0464,-87.6943
Taylorville,1,39.5328,-89.2804
Le Roy,33,40.3395,-88.7628
Round Lake Heights,4,42.3855,-88.1038
Galesburg,65,40.9506,-90.3763
Oak Forest,16,41.6054,-87.7527
Martinsville,39,36.6826,-79.8636
Northlake,1,41.9142,-87.9054
Dupo,2,38.5146,-90.2168
Gratiot,4,42.5799,-90.0238
Creve Coeur,14,38.662,-90.443
Waterman,3,41.7683,-88.7659
Braceville,6,41.228,-88.2464
Crestwood,19,38.5569,-90.3783
Norridge,5,41.9637,-87.8231
Lake Barrington,19,42.2121,-88.1684
Malta,19,48.3554,-107.8702
Odell,3,45.6354,-121.5522
Lockport,33,41.5906,-88.0293
Philo,11,40.0033,-88.1563
Gardner,44,38.8122,-94.9275
Park City,99,40.6502,-111.5013
Western Springs,23,41.8023,-87.9006
Monee,9,41.4181,-87.7502
East Dubuque,1,42.4888,-90.6278
Highwood,7,42.206,-87.8128
Capron,4,42.3986,-88.7394
De Witt,8,43.03,-76.0819
Herscher,2,41.0493,-88.1006
Sherman,29,33.6273,-96.6221
Elburn,12,41.8852,-88.4606
Indian Head Park,1,41.769,-87.8977
Worden,9,38.9316,-89.8402
Hazel Green,3,34.9236,-86.5671
La Salle,36,40.3484,-104.7062
Winthrop Harbor,16,42.4805,-87.8293
La Grange Park,5,41.8308,-87.8723
Kankakee,12,41.102,-87.8643
North Pekin,6,40.6114,-89.6225
Loves Park,4,42.3364,-88.9975
Broadview,7,41.8583,-87.8562
Garden Prairie,7,42.2534,-88.7178
Charleston,846,32.8168,-79.9687
Paxton,6,40.4563,-88.102
River Grove,2,41.9243,-87.8379
Midlothian,371,32.4669,-96.989
Merrionette Park,1,41.6812,-87.7012
Maple Park,12,41.9095,-88.6076
Mackinaw,4,40.5341,-89.355
Kenilworth,77,40.6781,-74.289
Hartford,1085,41.7661,-72.6834
Delmar,19,38.445,-75.5662
Cornell,8,45.1632,-91.1497
Bonfield,3,41.145,-88.0542
Wonder Lake,2,42.3794,-88.3493
North Barrington,14,42.2065,-88.1316
Round Lake Park,3,42.3309,-88.075
Swansea,135,38.5507,-89.9858
Savanna,2,42.0904,-90.1395
Grant Park,1,41.2429,-87.6353
Northwoods,1,38.7035,-90.2824
Geneseo,8,41.4509,-90.154
Salem,376,44.9233,-123.0244
Homewood,12,33.4619,-86.809
Elwood,9,40.8462,-73.3389
Abingdon,121,36.709,-81.9713
Grand Rapids,7307,42.9619,-85.6562
Flushing,1183,43.0637,-83.8403
Grand Blanc,1472,42.9258,-83.6181
Detroit,6301,42.3834,-83.1024
Flint,6667,43.0236,-83.6921
Novi,518,42.4786,-83.4893
Burton,1065,42.9974,-83.6175
Madison Heights,546,42.5073,-83.1034
Swartz Creek,530,42.9631,-83.8251
Coopersville,34,43.0658,-85.9341
Davison,1004,43.0318,-83.5187
Hudsonville,46,42.8632,-85.8627
Ann Arbor,322,42.2759,-83.731
Hamtramck,96,42.3954,-83.0559
Taylor,322,42.226,-83.2688
Auburn Hills,215,42.6735,-83.2448
Royal Oak,953,42.5084,-83.1539
Northville,159,42.4355,-83.489
Jenison,23,42.9063,-85.8269
Clio,775,43.1773,-83.7355
Harper Woods,160,42.439,-82.9293
Southfield,990,42.4765,-83.2605
Romulus,455,42.2237,-83.366
Mount Morris,564,42.0484,-89.4294
Sterling Heights,83,42.5809,-83.0305
Hazel Park,348,42.4619,-83.0977
Portland,3163,45.5371,-122.65
Warren,674,42.4934,-83.027
Otisville,135,41.4714,-74.5397
Bridgeport,565,41.1918,-73.1954
New Baltimore,73,42.6904,-82.7398
Allen Park,259,42.2595,-83.2107
Casnovia,6,43.2336,-85.7895
Millington,34,35.335,-89.8991
Bloomfield Hills,65,42.578,-83.2456
East Lansing,33,42.748,-84.4836
Pinckney,1,42.4543,-83.9457
Southgate,49,42.2047,-83.2057
Goodrich,186,42.9147,-83.5092
Holland,177,42.7677,-86.0984
Comstock Park,51,43.0438,-85.6778
Otsego,4,45.266,-93.6201
Brighton,255,39.9716,-104.7963
Lowell,210,42.6389,-71.3217
Wyoming,228,42.8908,-85.7066
Toledo,459,41.6638,-83.5827
Kent City,6,43.2202,-85.7539
Manchester,507,42.9848,-71.4447
Redford,155,44.6063,-73.8114
Center Line,132,42.4805,-83.0274
Grandville,113,42.9004,-85.7564
Belding,3,43.0968,-85.2331
Byron Center,63,42.8121,-85.7279
Lincoln Park,133,42.2432,-83.1811
Livonia,363,42.3972,-83.3733
Dearborn,347,42.3127,-83.213
Ypsilanti,169,42.244,-83.6208
Flat Rock,49,42.0991,-83.2716
Battle Creek,106,42.2985,-85.2296
Bay City,69,43.5902,-83.8887
Grand Haven,47,43.0553,-86.2201
Wayland,54,42.6725,-85.6408
Lenox,27,40.8835,-94.5583
Portage,141,42.2,-85.5906
Kalamazoo,137,42.2749,-85.5882
Genesee,30,39.6872,-105.2718
Holt,61,42.6416,-84.5308
Okemos,23,42.7057,-84.4135
Whitmore Lake,80,42.4258,-83.753
New Era,4,43.5595,-86.3477
South Haven,18,41.5438,-87.1367
Bridgman,17,41.9396,-86.5652
Marne,20,40.0725,-82.3091
Zeeland,56,42.8139,-86.0129
Port Huron,71,42.9821,-82.4388
Benton Harbor,55,42.1159,-86.4488
Paw Paw,44,42.2148,-85.8919
Gaines,69,42.8725,-83.9108
Durand,21,42.9127,-83.989
Corunna,9,42.9837,-84.1162
Muskegon,70,43.2281,-86.2562
Charlotte,21075,35.2083,-80.8303
Grosse Pointe Farms,1,42.4068,-82.8993
Rockwood,31,37.463,-77.5744
Wixom,111,42.5243,-83.5346
Spring Lake,35,35.1843,-78.9962
Holly,184,42.7987,-83.622
Rochester,2622,43.168,-77.6162
Watervliet,333,42.7243,-73.7068
Stevensville,88,38.9745,-76.3184
Lennon,57,42.9855,-83.9325
Howell,46,42.6078,-83.9339
Allendale,29,42.9845,-85.9499
Clarksville,127,36.5692,-87.3413
Olivet,8,42.444,-84.9246
Allegan,12,42.5299,-85.8462
Fowlerville,16,42.6596,-84.0743
Williamston,87,35.8465,-77.0661
Saginaw,153,43.4199,-83.9501
Frederic,10,45.6548,-92.4646
Bingham Farms,2,42.5176,-83.278
Nunica,11,43.081,-86.0721
Parma,47,41.3843,-81.7286
Erie,123,42.1167,-80.0733
Kimball,13,41.2335,-103.6513
Melvindale,6,42.2802,-83.1782
Mattawan,16,42.2165,-85.7858
Fraser,2,42.5388,-82.9496
Grass Lake,30,42.2511,-84.2073
Sunfield,3,42.7612,-84.9952
Birch Run,31,43.2503,-83.7911
Columbiaville,10,43.1567,-83.4069
Plainwell,25,42.4457,-85.6435
Mancelona,4,44.9024,-85.0613
Standish,7,43.9794,-83.9637
Cedar Springs,22,43.2201,-85.5535
Pontiac,20,42.6493,-83.2878
Hastings,83,40.5961,-98.39
Saint Joseph,30,37.6936,-87.3256
Carleton,29,42.0572,-83.3899
Lawrence,107,38.9597,-95.2642
Mesick,2,44.4043,-85.7171
Onsted,4,42.0061,-84.1893
Morrice,4,42.8362,-84.1833
Big Rapids,4,43.6992,-85.4806
Memphis,1412,35.1087,-89.9663
Ortonville,7,45.3018,-96.4415
Eastpointe,8,42.4657,-82.9461
Macomb,18,40.4709,-90.6807
Shelbyville,43,35.4987,-86.4517
Saugatuck,4,41.1143,-73.3717
Saranac,4,42.9294,-85.2105
Gowen,2,34.8781,-95.4742
Ada,18,34.7662,-96.6681
Constantine,7,41.8378,-85.665
Mount Clemens,6,42.5977,-82.8821
New Haven,525,41.3113,-72.9246
Lapeer,10,43.0447,-83.3253
White Lake,7,34.6418,-78.4969
South Lyon,8,42.4614,-83.6526
Luna Pier,5,41.8049,-83.4426
Sand Lake,5,44.3276,-83.6711
Temperance,4,41.7653,-83.5755
Chelsea,173,42.3959,-71.0325
Dearborn Heights,6,42.3164,-83.2769
Ferndale,40,42.4592,-83.1313
Garden City,104,42.3244,-83.3412
Grosse Pointe Park,2,42.3794,-82.9287
Dimondale,10,42.6484,-84.6475
Lawton,17,34.6175,-98.4202
Ionia,8,42.9773,-85.0727
Inkster,2,42.2935,-83.3148
Hart,2,43.6955,-86.3679
Sylvania,22,41.71,-83.7092
Mayville,1,43.4986,-88.5474
Webberville,23,42.6643,-84.1797
Fruitport,7,43.1248,-86.1561
Three Rivers,32,41.947,-85.6281
Bath,15,43.9346,-69.8346
Schoolcraft,11,42.117,-85.6337
Coloma,9,42.1864,-86.3083
New Lothrop,3,43.1168,-83.9693
Newport,269,41.4801,-71.3203
Middleville,9,42.7138,-85.4693
Armada,1,42.8424,-82.8832
Tecumseh,9,42.0066,-83.945
Walled Lake,2,42.5379,-83.4786
Norton Shores,3,43.1621,-86.2519
Otter Lake,3,43.2138,-83.4595
Rochester Hills,3,42.6645,-83.1563
Birmingham,941,33.5279,-86.7971
Brown City,3,43.2115,-82.988
Linwood,22,39.8254,-75.4253
Baldwin,16,40.6511,-73.6075
Ithaca,13,42.4442,-76.5032
Fennville,12,42.5947,-86.1051
Caro,1,43.4891,-83.4025
Farmington Hills,10,42.486,-83.3771
Elk Rapids,1,44.8949,-85.4053
Hartland,11,43.1029,-88.3396
Lake,1,32.3359,-89.3158
Lake Orion,6,42.7827,-83.2453
Ravenna,28,41.1612,-81.2422
Cassopolis,5,41.9116,-86.0085
Pentwater,3,43.7793,-86.4303
Mears,1,43.6835,-86.4222
Romeo,3,42.8049,-83.0041
Eagle,23,43.7223,-116.3866
Pinconning,11,43.8573,-83.9638
Leroy,3,31.4952,-87.969
Ceresco,2,41.058,-96.6459
Roscommon,1,44.4915,-84.5914
Howe,9,33.5067,-96.6155
Grayling,4,44.6566,-84.7091
Cadillac,5,44.2493,-85.4164
New Boston,22,33.4612,-94.4183
Freeport,63,40.6515,-73.585
Chesaning,5,43.1851,-84.12
DeWitt,10,41.8227,-90.5448
Tekonsha,5,42.0964,-84.9903
Berrien Springs,4,41.9474,-86.3403
Bristol,169,36.5572,-82.2154
South Bend,19,41.6767,-86.2696
Burt,4,43.2358,-83.9027
Prudenville,1,44.3013,-84.6654
Traverse City,5,44.7546,-85.6038
Hemlock,15,43.4186,-84.2311
Evart,1,43.9003,-85.2751
Bear Lake,1,44.7182,-84.9486
Potterville,10,42.6299,-84.7433
Petersburg,207,37.2043,-77.3913
Climax,13,42.2383,-85.336
Grosse Pointe,2,42.3915,-82.9118
Sloatsburg,94,41.162,-74.1902
Suffern,272,41.1138,-74.1422
White Plains,742,41.022,-73.7547
Brewster,775,48.1015,-119.7762
Chicopee,31,42.1764,-72.5719
Providence,1986,41.823,-71.4187
Pawtucket,387,41.8744,-71.3743
Burlington,466,36.076,-79.4685
Peabody,238,42.5335,-70.9725
Fair Lawn,55,40.9359,-74.1177
Little Ferry,6,40.8464,-74.0388
Bay Shore,254,40.7288,-73.2495
Cranston,360,41.7658,-71.4858
Medford,547,42.3372,-122.854
Rye,623,37.9212,-104.9322
Quincy,264,42.2506,-71.0187
Elizabeth,289,40.6658,-74.1913
West Harrison,270,39.2581,-84.8225
Andover,469,45.2571,-93.3265
Schenectady,472,42.8025,-73.9275
Dorchester,549,45.0025,-90.3308
Haverhill,133,42.7838,-71.0871
West Nyack,363,41.0907,-73.9714
Hopewell Junction,414,41.5805,-73.8103
Nanuet,459,41.0957,-74.0155
Valhalla,134,41.0773,-73.7778
Latham,512,42.7427,-73.7497
Demarest,2,40.955,-73.9568
Bronx,4192,40.8501,-73.8662
Yonkers,937,40.9466,-73.8673
Somers,152,42.6411,-87.8919
Irvington,497,41.0349,-73.866
Paterson,261,40.9147,-74.1624
Briarcliff Manor,101,41.14,-73.8438
Kearny,374,40.7528,-74.1202
Perth Amboy,80,40.5202,-74.2724
Boston,922,42.3188,-71.0852
Greenwich,440,41.0318,-82.5198
Mount Vernon,439,48.4203,-122.3115
Scarsdale,189,40.9902,-73.7773
Everett,856,47.9525,-122.1669
Staten Island,1207,40.5834,-74.1496
Keasbey,119,40.5143,-74.3078
Clifton,397,40.863,-74.1575
Iselin,179,40.5697,-74.3172
East Islip,48,40.7257,-73.1869
Chester,578,39.8456,-75.3718
Buchanan,67,41.8283,-86.3656
Wappingers Falls,255,41.5984,-73.9181
Great River,4,40.7137,-73.1628
Bellport,25,40.754,-72.9422
Avon,132,41.4485,-82.0187
Blairstown,88,41.906,-92.0821
Roseland,55,40.8208,-74.3086
Roslyn,27,40.1311,-75.1374
Berlin,132,44.4869,-71.2599
Reading,354,40.34,-75.9267
Edison,336,31.5608,-84.7374
South Amboy,263,40.4852,-74.2831
Bronxville,201,40.9395,-73.8265
Rensselaer,156,42.6465,-73.7328
Worcester,226,42.2705,-71.8079
Seymour,73,38.9476,-85.8911
Hamden,62,39.1592,-82.5243
Northampton,44,42.3266,-72.6745
Jersey City,650,40.7184,-74.0686
Katonah,463,41.256,-73.6857
Wantagh,163,40.6686,-73.5104
Florham Park,21,40.7773,-74.3953
New Providence,19,40.6996,-74.4035
New York,3145,40.6943,-73.9249
Tuckahoe,42,37.5878,-77.5858
Plainville,218,39.2341,-99.3009
Branford,125,29.9623,-82.9243
Brockton,97,42.0821,-71.0242
Roslyn Heights,203,40.7788,-73.6396
Tarrytown,396,41.0647,-73.8672
East Orange,360,40.7651,-74.2117
Deer Park,97,29.6898,-95.1151
Meriden,330,41.5369,-72.7946
Hopkinton,170,42.3428,-91.249
Dix Hills,22,40.8033,-73.3375
Woodhaven,12,42.132,-83.2374
Valley Stream,160,40.6647,-73.7043
Sandy Hook,29,41.4128,-73.244
New Hyde Park,48,40.7323,-73.6858
Danbury,155,41.4015,-73.4709
Hadley,30,43.9987,-95.8575
Poughkeepsie,148,41.695,-73.9211
Huntington Station,226,40.8446,-73.405
Waltham,333,42.3889,-71.2423
Ridge,18,40.9068,-72.8816
Morristown,125,36.2043,-83.3001
Nassau,53,45.0677,-96.4417
East Providence,210,41.8065,-71.3565
West Orange,118,30.0791,-93.7598
Pleasant Valley,152,39.4504,-80.1552
Manhattan,68,40.7834,-73.9662
Elmsford,430,41.0541,-73.8143
Whippany,72,40.8233,-74.4184
Nyack,464,41.0919,-73.9143
Southport,83,33.9411,-78.0205
Stratford,177,39.829,-75.0156
Wharton,58,29.3177,-96.1022
Cedar Knolls,47,40.8199,-74.4551
Jamaica,688,41.8454,-94.307
Smithtown,57,36.2326,-80.5711
Shoreham,26,42.0604,-86.5115
Waterbury,310,41.5582,-73.0361
Randolph,114,43.5397,-89.0029
Littleton,349,39.5915,-105.0188
West Babylon,139,40.7129,-73.3585
Hyde Park,61,41.8008,-111.8121
Melville,160,40.7824,-73.4088
Westford,105,44.6079,-73.0113
Fort Lee,610,40.8509,-73.9713
Charlestown,129,38.427,-85.6677
Stamford,288,41.1039,-73.5585
Ronkonkoma,113,40.8037,-73.1246
Selden,33,40.8714,-73.0466
Millbury,64,41.5648,-83.4255
Leominster,100,42.5209,-71.7717
Ridgewood,134,40.9821,-74.1127
Paramus,237,40.9455,-74.0712
Manhasset,103,40.7884,-73.6943
Dover Plains,38,41.7395,-73.5733
Somerville,155,42.3908,-71.1014
Clark,168,44.8809,-97.7348
Canaan,45,42.0347,-73.3322
Newtonville,29,39.5633,-74.8559
Pleasantville,213,39.39,-74.5169
Millbrook,63,32.5027,-86.3737
Marlborough,121,42.3494,-71.5468
Marshfield,14,44.6627,-90.1728
Hasbrouck Heights,19,40.8618,-74.0741
Peekskill,99,41.2884,-73.9227
Woburn,243,42.4869,-71.1543
Larchmont,140,40.9258,-73.7531
Warwick,411,41.7062,-71.4334
Chappaqua,127,41.1575,-73.766
Armonk,188,41.1319,-73.7138
Cromwell,161,41.4033,-85.6142
Center Moriches,17,40.8004,-72.7958
Pompton Lakes,8,41.0024,-74.2859
Fords,226,40.5359,-74.3126
Passaic,40,40.8574,-74.1282
Middle Village,15,44.9347,-88.7334
Hillburn,121,41.1263,-74.1706
Farmingdale,131,40.7328,-73.4468
North Salem,229,39.86,-86.6437
Port Jervis,20,41.3783,-74.691
Beacon,226,41.5036,-73.9655
Shirley,67,40.7936,-72.8748
Palmer,19,61.5971,-149.1148
New London,86,41.3502,-72.1022
West Newton,60,40.2094,-79.7699
Unionville,4,35.0716,-80.5173
South Glastonbury,17,45.3121,-110.8076
Middlebury,55,41.6696,-85.7075
Pelham,167,33.3114,-86.7573
Manville,4,40.542,-74.5892
Nashua,214,42.7491,-71.491
Bayside,136,43.1827,-87.9017
Enfield,70,36.18,-77.669
Whitestone,242,64.1527,-145.9061
Massapequa,128,40.6676,-73.4706
Rockland,29,44.1274,-69.1369
Totowa,47,40.9039,-74.2214
Bohemia,96,40.7717,-73.1271
Rutland,12,43.6092,-72.9783
Westport,326,35.5103,-80.9783
Morris Plains,41,40.8356,-74.4786
Uniondale,59,40.7176,-73.5947
East Meadow,53,40.7197,-73.5604
Eastport,12,40.8402,-72.7285
Beverly,36,42.5681,-70.8627
Parsippany,282,40.8645,-74.4135
Merrick,235,40.6515,-73.5535
Wheatley Heights,2,40.7624,-73.3705
Cranford,222,40.6548,-74.3053
Blackstone,19,37.0822,-78.003
Harvard,27,42.4296,-88.6211
West Haven,149,41.2739,-72.9672
Framingham,162,42.3085,-71.4368
Secaucus,133,40.781,-74.0659
South Salem,76,39.3372,-83.3067
Lancaster,3865,40.042,-76.3012
Newburgh,347,37.9494,-87.4053
Millerton,18,41.9534,-73.5113
Milton,460,34.1353,-84.3139
Islip Terrace,23,40.7503,-73.1869
East Rutherford,98,40.8179,-74.0854
New Brunswick,100,40.487,-74.445
New Rochelle,339,40.9304,-73.7836
Astoria,272,46.1856,-123.8053
Bedford,580,32.8464,-97.135
Sharon,106,41.234,-80.4998
New Bedford,43,41.6697,-70.9428
Gloucester,53,42.626,-70.6897
Bellerose,104,40.7243,-73.7167
Bridgewater,156,38.3862,-78.9674
Seaford,83,40.6678,-73.4922
West Hempstead,135,40.6959,-73.6507
Raynham,60,34.5761,-79.1908
Yorktown Heights,267,41.2697,-73.7755
Malden,36,42.4305,-71.0576
Leonia,46,40.8638,-73.99
Westhampton Beach,14,40.8081,-72.6457
Watertown,54,43.9734,-75.9094
Wakefield,106,38.823,-77.2406
Mastic,18,40.8096,-72.8479
Revere,107,42.4189,-71.004
New Canaan,55,41.142,-73.4905
Cold Spring,31,39.013,-84.435
Central Valley,144,38.6991,-112.0967
Hackensack,125,40.8891,-74.0462
Danvers,112,40.53,-89.1751
Old Westbury,154,40.7866,-73.5975
Fitchburg,41,42.5912,-71.8156
Highland Falls,126,41.3643,-73.9682
Templeton,22,35.556,-120.7181
Dobbs Ferry,102,41.0127,-73.8697
North Haven,94,41.023,-72.314
Newington,7,38.7358,-77.1993
Roxbury,91,38.5511,-97.4274
New Britain,78,41.6759,-72.7862
Sag Harbor,18,40.9971,-72.2892
Norwich,59,41.5495,-72.0882
Bergenfield,16,40.9236,-73.9982
Mahopac,71,41.3688,-73.7414
Upper Saddle River,5,41.0634,-74.0985
Orangeburg,420,33.4928,-80.8671
Hollis,36,34.6897,-99.9153
Hingham,31,43.6465,-87.9151
Elmont,8,40.7033,-73.7078
Patchogue,60,40.7621,-73.0185
Farmingville,58,40.839,-73.0404
Durham,431,35.9792,-78.9022
Amenia,26,47.0065,-97.2241
Miller Place,17,40.9374,-72.9864
Port Chester,175,41.0051,-73.668
Upton,7,44.1039,-104.6362
Montvale,16,41.0529,-74.0499
Hamburg,91,40.5561,-75.9825
Hoboken,7,40.7452,-74.0281
Jericho,165,40.7875,-73.5416
Mount Kisco,197,41.2016,-73.7281
Rutherford,80,40.8203,-74.1057
Greenlawn,8,40.8632,-73.3646
Floral Park,35,40.7227,-73.7029
Greenfield,127,42.9619,-88.0052
Port Murray,16,40.7915,-74.924
Cheshire,103,44.1901,-123.2834
Bayonne,92,40.6668,-74.1158
North Babylon,76,40.7314,-73.3248
Teaticket,4,41.5624,-70.5858
Bolton,50,40.9431,-81.1253
Commack,131,40.8435,-73.2833
Coram,32,40.8812,-73.0059
Westbury,187,40.7599,-73.5891
Ellington,34,37.2364,-90.9733
Forest Hills,380,42.9577,-85.4895
Palisades Park,21,40.8472,-73.9966
Bayport,28,40.7461,-73.0546
Annandale,412,38.8324,-77.196
Naugatuck,27,41.489,-73.0518
Hempstead,125,30.1006,-96.0777
Germantown,232,39.1755,-77.2643
Hackettstown,182,40.854,-74.8257
Shelton,117,41.306,-73.1383
Great Neck,113,40.8029,-73.7333
Syosset,84,40.8157,-73.502
Shrewsbury,52,38.5866,-90.3282
Guilford,59,40.1685,-94.7358
Richmond Hill,78,31.9012,-81.3125
Ledgewood,31,40.8769,-74.6724
Franklin Lakes,29,41.0086,-74.2083
Elizaville,37,38.4167,-83.8243
Holyoke,23,42.2125,-72.6411
Wallingford,90,43.3203,-94.7922
New Hampton,32,43.0563,-92.3153
Salisbury Mills,2,41.4308,-74.1098
Greenvale,2,40.8118,-73.6262
Kings Park,17,40.8881,-73.2475
Plainview,91,40.7832,-73.4732
Bethpage,36,40.7495,-73.4856
Hauppauge,107,40.8211,-73.2109
Sterling,1078,39.0052,-77.405
Mattituck,17,41.0012,-72.5419
Flemington,32,40.5087,-74.8599
Jewett City,27,41.607,-71.9806
Cohoes,40,42.7732,-73.7077
West Milford,15,39.2045,-80.4034
Plantsville,91,41.5832,-72.8919
Midland Park,9,40.9952,-74.141
Dedham,65,41.9084,-94.8233
Wyandanch,12,40.7496,-73.3633
Rockville Centre,44,40.6643,-73.6383
Trumbull,132,40.6801,-98.2734
Monticello,116,45.2991,-93.7996
Rosedale,290,39.3266,-76.5084
Wading River,13,40.9464,-72.823
Ravena,6,42.4755,-73.8112
Marblehead,5,41.5236,-82.7285
Sea Cliff,2,40.8441,-73.6442
Hicksville,32,40.7637,-73.5245
Chatham,80,39.6733,-89.6934
Westfield,57,40.0341,-86.1529
Rocky Hill,171,40.4001,-74.6405
Manorville,37,40.8574,-72.7915
Saddle River,19,41.0273,-74.0956
Holtsville,63,40.8124,-73.0447
Central Islip,49,40.7836,-73.1945
East Northport,15,40.8791,-73.3233
Centereach,17,40.8681,-73.0821
Glen Rock,81,40.9601,-74.125
Shelburne Falls,8,42.6063,-72.7436
Rahway,28,40.6077,-74.2807
South Plainfield,37,40.5748,-74.4152
Devens,4,42.5439,-71.6146
Metuchen,74,40.5424,-74.3628
West Islip,49,40.7041,-73.2954
Copiague,23,40.6707,-73.3922
Willimantic,6,41.7171,-72.2114
Northford,1,41.3949,-72.7826
North Bellmore,7,40.6904,-73.539
Yaphank,41,40.8323,-72.9233
Fall River,65,41.7136,-71.1015
Bound Brook,47,40.5676,-74.5383
Flanders,18,40.8412,-74.7102
New Windsor,41,39.5443,-77.1012
Basking Ridge,52,40.7061,-74.5568
Summit,82,40.7154,-74.3647
Cumberland,92,39.6515,-78.7584
Bedminster,118,40.6745,-74.6592
Carle Place,33,40.7499,-73.6124
New City,139,41.1542,-73.9912
Carlstadt,36,40.8247,-74.0613
Short Hills,17,40.7389,-74.3278
Attleboro,77,41.9311,-71.295
Mount Sinai,7,40.9372,-73.0179
Islandia,102,40.8069,-73.1711
Wingdale,17,41.6376,-73.5687
Newtown,71,39.1243,-84.3517
Levittown,38,40.7241,-73.5125
Amityville,74,40.6696,-73.4156
Ridgefield Park,95,40.8543,-74.0201
Cliffside Park,4,40.8222,-73.9879
Englewood Cliffs,39,40.8823,-73.9467
North Arlington,11,40.7874,-74.1273
Avenel,9,40.5842,-74.2716
Ridgefield,122,40.8313,-74.0147
Taunton,34,41.9036,-71.0943
Athol,13,47.9469,-116.7079
Woodcliff Lake,18,41.0253,-74.0604
Fairview,51,40.8182,-74.0022
Little Falls,102,45.9862,-94.3586
Groton,59,45.4517,-98.1
Florence,624,34.178,-79.7898
East Setauket,14,40.921,-73.0942
South Deerfield,17,42.4795,-72.5947
Stafford Springs,42,41.9595,-72.3105
Lynbrook,7,40.6579,-73.6742
Waldwick,15,41.0133,-74.1259
Wallington,1,40.8536,-74.1069
East Falmouth,13,41.5708,-70.5556
Staatsburg,12,41.854,-73.9233
Bellingham,265,48.7548,-122.469
Kinderhook,12,39.7037,-91.1526
Moriches,7,40.807,-72.8235
Salt Point,25,41.8061,-73.79
East Quogue,15,40.8489,-72.5785
Garfield,8,40.8791,-74.1085
Valatie,60,42.4134,-73.6779
Hillsdale,42,41.0074,-74.044
Wolcott,9,40.7589,-87.042
Carteret,79,40.5849,-74.2284
Huntington,138,38.4109,-82.4345
Colonia,24,40.5926,-74.3148
East Nassau,11,42.533,-73.5085
Ardsley,54,41.0134,-73.8394
Averill Park,23,42.6393,-73.5583
Port Jefferson Station,12,40.9259,-73.0652
Stony Point,75,41.9451,-83.2751
Cornwall,12,40.2659,-76.4077
Lynn,51,42.4781,-70.9664
Wassaic,2,41.8064,-73.5593
Falmouth,48,38.3319,-77.4655
East Patchogue,9,40.7704,-72.9817
Monmouth Junction,46,40.3754,-74.5582
Stoughton,82,42.9237,-89.2225
Far Hills,2,40.6906,-74.6257
Sayreville,27,40.4656,-74.3237
Netcong,21,40.8985,-74.7019
New Lebanon,13,39.744,-84.3943
Montague,19,43.4128,-86.3636
Lee,39,30.4114,-83.3003
Sussex,9,43.1346,-88.2226
Ghent,18,37.6221,-81.1057
Amherst,34,41.4022,-82.2303
Hatfield,333,37.903,-87.2219
Matawan,75,40.4127,-74.2365
Stockholm,4,45.1018,-96.7998
Wynantskill,9,42.6879,-73.6449
Hubbardston,6,43.0943,-84.842
Windham,72,41.2375,-81.0373
Sayville,29,40.7478,-73.084
Putnam,13,32.3703,-99.1955
Massapequa Park,9,40.6817,-73.4496
Harrison,79,41.0236,-73.7193
Pawcatuck,14,41.3774,-71.8492
Winthrop,9,44.5424,-94.3598
Lake Grove,3,40.8586,-73.1168
Hartsdale,10,41.0154,-73.8036
New Milford,20,40.9337,-74.0196
Blauvelt,3,41.0689,-73.9545
Colchester,35,40.4256,-90.7922
Stonington,22,39.6385,-89.1921
Hampton Bays,28,40.8695,-72.5225
Barre,15,44.1998,-72.5085
Lunenburg,12,44.457,-71.6803
Higganum,17,41.4905,-72.558
Pine Brook,8,40.8676,-74.3438
Buzzards Bay,32,41.755,-70.6128
Pocasset,7,41.6877,-70.6195
Watchung,41,40.6431,-74.4391
Westbrook,37,43.6954,-70.3539
Westwood,27,40.9878,-74.0308
Great Meadows,7,40.877,-74.9034
Danielson,19,41.8086,-71.8854
Derby,27,37.5571,-97.2551
Holbrook,112,40.7944,-73.07
Smithfield,127,35.5133,-78.3495
Hanover,649,39.8118,-76.9836
Stony Brook,18,40.9061,-73.1278
Stone Ridge,3,38.9294,-77.5557
Budd Lake,21,40.8733,-74.7375
North Middletown,3,40.4395,-74.1179
Harriman,28,35.9307,-84.5602
South Windham,2,41.685,-72.1845
Lake Hopatcong,9,40.9599,-74.6094
Roosevelt,91,40.6797,-73.5837
Butler,90,40.8616,-79.8962
Neshanic Station,5,40.5291,-74.7358
Gladstone,15,39.2134,-94.5592
West Wareham,7,41.79,-70.755
New Hartford,45,42.5682,-92.6214
Halifax,55,36.7612,-78.9279
Middle Island,19,40.8857,-72.9454
West Sand Lake,22,42.6402,-73.6033
Tivoli,12,42.0587,-73.9119
Tenafly,16,40.9176,-73.9532
Roselle Park,8,40.6653,-74.2666
Ledyard,7,43.4192,-94.1593
Shrub Oak,51,41.3257,-73.8296
Asbury,38,42.512,-90.7802
North Plainfield,8,40.6209,-74.4386
Lake Hiawatha,8,40.8816,-74.3826
Cedar Grove,23,30.1812,-85.6268
West Springfield,23,38.7771,-77.2268
Bellmore,76,40.6569,-73.5285
Queens,35,40.7498,-73.7976
Boonton,21,40.9047,-74.4048
Sutton,24,40.6072,-97.8589
Caldwell,34,43.6453,-116.6594
Woodmere,5,40.6375,-73.7219
Maynard,6,42.7738,-91.8774
Lyndhurst,18,41.5172,-81.4922
South River,7,40.4455,-74.3783
Parksville,1,33.7866,-82.2174
Monson,9,36.4924,-119.336
Brookfield,177,43.064,-88.1231
Central Falls,8,41.8901,-71.3934
Jackson Heights,22,35.2236,-77.6333
Port Washington,9,40.8268,-73.6765
Mystic,19,41.3562,-71.9546
Chaplin,3,37.8996,-85.2196
Prospect Park,1,39.8859,-75.3075
East Moriches,13,40.8085,-72.7573
Middleton,23,43.1064,-89.5059
Monsey,24,41.1181,-74.0682
Tariffville,2,41.9071,-72.7684
Dayville,32,41.8443,-71.8823
Haskell,5,34.5095,-92.6406
Northport,78,33.2586,-87.5993
Ashford,15,31.1858,-85.2359
Ludlow,33,39.0904,-84.5498
Nesconset,14,40.8467,-73.1522
Ramsey,19,45.2617,-93.4494
Garrison,48,39.4023,-76.7514
Torrington,32,41.8349,-73.1282
Cos Cob,6,41.0513,-73.5934
Vauxhall,33,40.7174,-74.2838
Pittsfield,15,42.4517,-73.2605
Delanson,14,42.7474,-74.1841
Verona,127,42.9892,-89.5383
Cornwall Bridge,7,41.8054,-73.3852
Norton,15,41.0294,-81.6461
Glen Head,17,40.8449,-73.618
Walden,19,41.5603,-74.1879
Calverton,27,39.0578,-76.9488
Ansonia,14,41.3443,-73.0689
Mineola,13,40.747,-73.6394
Needham,26,31.987,-88.3366
Congers,5,41.1491,-73.9457
Mastic Beach,10,40.7664,-72.8369
Ellenville,3,41.7009,-74.3609
Raritan,12,40.6958,-90.8251
Pine Island,5,44.1968,-92.6166
Woonsocket,7,42.001,-71.4993
Russell,4,38.8874,-98.8514
North Windham,1,43.8233,-70.4293
Bedford Hills,18,41.2361,-73.6964
Hope Valley,7,41.5151,-71.7201
Bernardsville,2,40.7268,-74.5918
Hopatcong,6,40.9541,-74.6593
Water Mill,9,40.9222,-72.3533
Accord,3,41.7972,-74.2319
Cold Spring Harbor,9,40.8621,-73.4506
Exeter,53,36.2941,-119.1459
Dalton,72,34.769,-84.972
Fairhaven,5,45.3231,-94.204
Haledon,4,40.9363,-74.1887
Turners Falls,1,42.5975,-72.5573
Essex Fells,3,40.8271,-74.2798
Tappan,2,41.027,-73.952
Branchville,11,33.2517,-80.8161
River Edge,8,40.9269,-74.0387
Dunellen,18,40.5903,-74.4656
Mansfield Center,9,42.0225,-71.218
Fiskdale,4,42.1229,-72.1089
Keansburg,3,40.4469,-74.1315
Litchfield,32,45.1221,-94.5253
Mountainside,18,40.6811,-74.3601
Carver,16,44.7648,-93.6537
Leonardo,6,40.419,-74.0599
Peconic,5,41.0369,-72.459
Charlton,24,39.6344,-77.8944
Gales Ferry,5,41.4215,-72.0854
Landing,20,40.9078,-74.6593
West Simsbury,3,41.8757,-72.845
Succasunna,3,40.853,-74.6568
Douglas,10,31.3602,-109.5394
Port Reading,15,40.5685,-74.2469
Portsmouth,203,43.058,-70.7826
Broad Brook,3,41.9097,-72.5426
Closter,5,40.9733,-73.9604
Deep River,6,41.5816,-92.3729
Ashby,11,46.0931,-95.8154
Ipswich,7,45.4435,-99.03
North Scituate,7,42.2121,-70.7652
Melrose,40,42.4556,-71.059
Maplewood,7,44.9842,-93.0247
Winsted,8,41.9262,-73.0675
Newfoundland,8,41.0594,-74.4308
Hewitt,2,31.452,-97.196
Berkley,6,42.4986,-83.1853
West Sayville,3,40.7295,-73.1051
Ashaway,11,41.426,-71.7852
Washingtonville,3,41.4297,-74.1577
Niantic,33,41.3258,-72.1952
Westhampton,1,40.8325,-72.6616
Stanhope,6,40.9141,-74.7027
Blue Point,3,40.7519,-73.0353
Sleepy Hollow,12,41.0936,-73.8722
Cresskill,4,40.9405,-73.9596
Norfolk,967,36.8945,-76.259
Oakville,13,38.4479,-90.3199
Lakeville,134,44.6774,-93.252
Hobart,10,41.514,-87.2729
Franklin Square,3,40.7002,-73.6775
Rye Brook,2,41.0302,-73.6864
Moosup,12,41.7173,-71.8757
Rock Hill,241,34.9415,-81.0241
Edgewood,81,39.419,-76.2964
Margaretville,1,42.1458,-74.6503
Millers Falls,1,42.5792,-72.4925
Otis,18,40.1501,-102.9622
Sheffield,9,34.757,-87.6977
Stow,11,41.1765,-81.4344
Worthington,15,40.095,-83.0209
Montauk,8,41.0466,-71.9465
West Hurley,1,42.0083,-74.112
Sewaren,2,40.5519,-74.2581
Dumont,32,40.9452,-73.9923
Hopedale,3,40.3263,-80.8955
Newbury,5,39.0846,-96.174
Williston Park,7,40.7587,-73.6465
Cutchogue,4,41.0168,-72.4871
Carolina,1,18.4054,-65.9792
Pompton Plains,6,40.9679,-74.3075
Laurelton,3,40.8815,-77.2024
Clintondale,3,41.6924,-74.0429
Wanaque,1,41.044,-74.29
Wurtsboro,10,41.5761,-74.4856
East Norwich,2,40.8495,-73.5288
Woodbourne,3,40.2017,-74.8873
Leeds,19,33.5436,-86.5639
Tuxedo Park,13,41.2007,-74.206
East Marion,3,41.1288,-72.3419
Barryville,1,41.4802,-74.9174
Glen Gardner,15,40.7004,-74.9395
South Huntington,2,40.8225,-73.3921
Amagansett,3,40.9841,-72.1329
Ringoes,6,40.4327,-74.8722
Northfield,44,44.455,-93.1698
Skillman,7,40.4247,-74.714
Whitinsville,4,42.1146,-71.6688
Rockaway Beach,4,45.6186,-123.9398
Woods Hole,1,41.5303,-70.6614
Claryville,1,38.914,-84.4095
Airmont,7,41.0992,-74.0989
Belle Mead,2,40.4684,-74.6559
New Albany,146,38.309,-85.8234
Castalia,8,41.4011,-82.808
Thornville,30,39.8944,-82.4203
Richfield,115,44.8763,-93.2829
Hebron,90,39.0626,-84.709
Chillicothe,39,39.3393,-82.9939
Peninsula,12,41.2379,-81.5518
West Jefferson,27,39.9475,-83.3076
Alexandria,1362,38.8185,-77.0861
East Liberty,1,40.3339,-83.585
Broadview Heights,11,41.3196,-81.6779
Medway,37,39.8837,-84.0135
Etna,21,40.4975,-79.9475
Sidney,22,40.2891,-84.1667
Enon,4,37.3273,-77.3195
Kimbolton,2,40.1507,-81.5758
Heath,13,40.0241,-82.4413
Gahanna,7,40.0251,-82.8637
Dunkirk,57,42.4801,-79.3324
Navarre,26,30.4174,-86.8907
Vickery,2,41.3769,-82.9415
Mechanicsburg,165,40.2115,-77.006
Centerville,87,39.6339,-84.1449
Powell,97,36.0358,-84.0296
Lorain,5,41.4409,-82.184
Leipsic,2,41.1096,-83.9674
Conover,11,35.7154,-81.2174
Fostoria,6,41.16,-83.4121
Obetz,3,39.8671,-82.9451
Medina,51,41.1358,-81.8695
Loveland,92,40.4166,-105.0623
Brunswick,55,41.2465,-81.8198
Pleasant Plain,7,39.2785,-84.1121
Millersburg,9,40.5533,-81.9171
Hinckley,8,41.7714,-88.6397
North Ridgeville,14,41.3852,-82.0195
Washington Court House,8,39.5381,-83.4281
Coolville,1,39.2191,-81.7989
Fairlawn,2,41.1271,-81.6216
Yellow Springs,5,39.7987,-83.8904
New Concord,9,39.9937,-81.7381
Van Buren,15,35.4483,-94.3528
Plain City,27,41.3071,-112.0877
South Bloomfield,3,39.7168,-82.993
Wapakoneta,26,40.5664,-84.1916
New Bavaria,2,41.2037,-84.1674
Kettering,2,39.6956,-84.1494
Glenford,5,39.8863,-82.3201
Killbuck,1,40.496,-81.9823
South Vienna,4,39.9294,-83.6138
Centerburg,5,40.3038,-82.6976
Bradner,11,41.3237,-83.4363
Pomeroy,1,39.0292,-82.0336
Logan,19,41.7399,-111.8422
Mount Orab,5,39.0293,-83.9267
Berea,8,41.3696,-81.8641
Baltimore,1606,39.3051,-76.6144
Ray,12,48.3416,-103.1636
Cable,1,46.2011,-91.2937
Bellbrook,3,39.6383,-84.0864
Lithopolis,1,39.8112,-82.8155
Shiloh,3,38.5534,-89.9161
Olmsted Falls,2,41.3657,-81.9038
Seven Hills,1,41.3803,-81.6736
Nashport,2,40.068,-82.1735
Clyde,28,41.3044,-82.9781
Ashville,18,39.7238,-82.9575
Anna,14,33.3472,-96.5508
Stockport,3,39.5489,-81.7944
Waldo,9,33.3524,-93.2956
Willard,46,41.0518,-82.7232
Orrville,3,40.848,-81.7743
Granville,31,40.0646,-82.5024
Foster,18,34.6046,-97.4907
Piketon,7,39.0649,-82.9986
Forest,27,37.3728,-79.2831
Grafton,23,43.3204,-87.948
Sandusky,13,41.4468,-82.7024
South Lebanon,4,39.3672,-84.2205
South Charleston,69,38.3426,-81.7155
Doylestown,23,40.97,-81.6954
Cygnet,9,41.2407,-83.6437
York,2701,39.9651,-76.7315
Severn,96,39.1355,-76.6956
Pottstown,1069,40.2508,-75.6445
Royersford,502,40.1862,-75.5382
Blue Bell,544,40.1474,-75.2687
Bala Cynwyd,541,40.0116,-75.2283
Mullica Hill,32,39.727,-75.2194
Jenkintown,525,40.0962,-75.1296
Lawnside,48,39.8673,-75.0289
Souderton,230,40.311,-75.3224
North Wales,708,40.2111,-75.2745
Merchantville,57,39.9502,-75.0504
Hagerstown,310,39.6401,-77.7217
Manheim,351,40.163,-76.3964
Lititz,332,40.154,-76.3044
Ephrata,400,40.1811,-76.1812
Cherry Hill,361,38.5696,-77.2895
Carnegie,169,40.408,-80.0861
Camp Hill,99,40.2422,-76.9274
Harrisburg,621,40.2752,-76.8843
Allentown,532,40.5961,-75.4756
Ligonier,21,41.4625,-85.5948
Wynnewood,334,34.6437,-97.1622
York Springs,20,40.0093,-77.1159
Bryn Mawr,334,40.0208,-75.3161
Chantilly,357,38.8868,-77.4453
Ashburn,707,39.0277,-77.4714
Plymouth Meeting,709,40.1097,-75.2803
Hatboro,406,40.1775,-75.1055
Philadelphia,3130,40.0077,-75.1339
Elizabethtown,268,37.7031,-85.8773
Ambler,794,40.1564,-75.2215
Willow Grove,731,40.1469,-75.1174
Rockville,450,39.0834,-77.1553
Hyattsville,598,38.9613,-76.9548
King of Prussia,645,40.0963,-75.3821
Lorton,571,38.6983,-77.2164
Centreville,520,38.839,-77.4389
Frederick,1215,39.4337,-77.4141
Elkridge,264,39.1941,-76.7428
Telford,157,40.3259,-75.3274
Pittsburgh,2382,40.4397,-79.9763
Parkton,106,34.9028,-79.0113
Fort Washington,478,38.7339,-77.0069
Norristown,1987,40.1225,-75.3398
Glenshaw,16,40.5391,-79.9735
Aberdeen,238,45.4649,-98.4686
Silver Spring,871,39.0028,-77.0207
Laurel,379,39.0949,-76.8622
Bel Air,223,39.5348,-76.346
Clairton,28,40.2976,-79.8854
Owings Mills,118,39.4115,-76.7913
Woodlyn,102,39.8774,-75.3445
West Mifflin,19,40.3581,-79.9073
Hunker,7,40.2041,-79.6154
New Freedom,49,39.7353,-76.6967
Schwenksville,223,40.2574,-75.4662
Merion Station,91,40.0035,-75.2501
Flourtown,141,40.1039,-75.2069
Elkins Park,395,40.0775,-75.128
Blackwood,187,39.7982,-75.0629
Willow Street,82,39.981,-76.2706
Purcellville,224,39.1378,-77.711
Beltsville,222,39.0394,-76.9211
Catonsville,231,39.2646,-76.7424
Millersville,240,40.0047,-76.3522
Beaver,35,40.6936,-80.3074
Falls Church,621,38.8847,-77.1751
Ardmore,352,34.1949,-97.1256
Manassas,348,38.7479,-77.4838
Palmyra,57,40.3099,-76.5943
Green Lane,64,40.3363,-75.4709
Riverton,26,40.5176,-111.9636
Elmer,14,39.5919,-75.174
Exton,100,40.0307,-75.6303
Crownsville,59,39.0224,-76.5904
Media,68,39.9199,-75.3889
Jeannette,29,40.3277,-79.6139
Mount Joy,132,40.1106,-76.5065
Marcus Hook,84,39.8131,-75.4165
Bellmawr,509,39.8666,-75.0941
Lansdale,920,40.2417,-75.2812
State College,53,40.7909,-77.8567
Ellicott City,269,39.2774,-76.8345
Broomall,54,39.9688,-75.354
Fort Belvoir,9,38.7119,-77.1459
Collegeville,652,40.1873,-75.4581
Oreland,99,40.115,-75.1803
Brandywine,78,38.6963,-76.8846
Bowie,228,38.9549,-76.7406
Latrobe,41,40.3125,-79.3825
Langhorne,107,40.1777,-74.9212
Leola,128,40.0915,-76.1891
Jessup,195,39.1488,-76.7772
Temple Hills,104,38.8106,-76.9495
Suitland,103,38.8492,-76.9225
Phillipsburg,239,40.6894,-75.1821
New Oxford,52,39.863,-77.0554
Dallastown,76,39.8996,-76.641
Allison Park,39,40.573,-79.9603
Conshohocken,1017,40.0772,-75.3034
Parkville,212,39.3832,-76.5519
Glenside,527,40.1032,-75.1517
Northumberland,14,40.8966,-76.7933
Morrisville,537,35.8368,-78.8348
Dunn Loring,189,38.8945,-77.2315
Camden,284,39.9361,-75.1073
Boyertown,47,40.3322,-75.6375
Herndon,68,38.9699,-77.3867
Pikesville,319,39.3893,-76.702
Churchville,57,40.1922,-74.9982
Bethesda,584,38.9866,-77.1188
New Cumberland,185,40.2297,-76.8764
Gloucester City,168,39.8924,-75.1172
Red Lion,139,39.8986,-76.6078
Myersville,141,39.5062,-77.569
Wyncote,254,40.0915,-75.1463
Morgantown,79,39.6383,-79.9464
Clifton Heights,3,39.9301,-75.2958
Thomasville,63,35.8813,-80.0807
Jarrettsville,16,39.6031,-76.4752
Narberth,159,40.0077,-75.2634
Oakmont,6,40.52,-79.8365
Belle Vernon,57,40.1256,-79.8671
Nottingham,289,39.7509,-76.0258
Chambersburg,80,39.9315,-77.6556
Greensburg,122,40.3113,-79.5445
College Park,149,38.996,-76.9337
Landisville,30,40.0902,-76.4064
Montgomeryville,207,40.2502,-75.2405
Lenhartsville,57,40.5721,-75.8892
Hammonton,130,39.6572,-74.7678
Bridgeville,78,40.3578,-80.1061
Gilbertsville,211,40.3219,-75.609
New Brighton,4,45.0658,-93.206
Stevens,63,40.2141,-76.1606
Tarentum,18,40.6043,-79.7602
Easton,181,40.6858,-75.2209
Potomac,99,39.0141,-77.1943
Clementon,23,39.8046,-74.985
Mertztown,4,40.5033,-75.6674
Upper Marlboro,360,38.8153,-76.7514
Harleysville,419,40.2792,-75.3873
Gettysburg,142,39.8304,-77.2339
Lewisberry,46,40.1356,-76.861
Stewartstown,29,39.7528,-76.5925
Terre Hill,3,40.1592,-76.0508
Lanham,249,38.962,-76.8421
Greenbelt,236,38.9953,-76.8885
Perryville,105,37.7263,-89.8759
Ridley Park,49,39.8785,-75.3251
Kennett Square,6,39.8438,-75.7113
Pottsville,11,40.6798,-76.2091
Aldie,143,38.9761,-77.645
Walkersville,38,39.4832,-77.3559
Oxon Hill,148,38.7884,-76.9727
New Market,53,38.6459,-78.6709
Chalfont,95,40.2893,-75.2095
Dundalk,56,39.2704,-76.4942
Saltsburg,14,40.4848,-79.448
Burke,25,38.7773,-77.2633
Middleburg,55,30.0502,-81.9011
Dalmatia,6,40.65,-76.9027
Sewell,62,39.7696,-75.1443
Port Matilda,21,40.8002,-78.0524
Bryn Athyn,26,40.1411,-75.0674
Haymarket,57,38.8121,-77.6363
Glen Burnie,310,39.156,-76.6071
Shippensburg,30,40.0484,-77.5227
New Holland,91,40.1008,-76.09
Round Hill,32,39.1319,-77.7681
Annville,55,37.3254,-83.9621
Elkton,115,39.6066,-75.8209
Chevy Chase,198,38.9944,-77.0738
Gaithersburg,446,39.1346,-77.2131
Accokeek,29,38.6745,-77.0023
Dillsburg,113,40.1103,-77.0335
Damascus,43,39.2701,-77.1957
Essex,95,39.3021,-76.4449
Reston,62,38.9497,-77.3461
Mars,20,40.6969,-80.0141
Gambrills,50,39.0927,-76.6511
Vineland,88,39.4653,-74.9981
Wellsville,22,41.6223,-111.943
Reinholds,39,40.2697,-76.1218
Maurertown,6,38.9325,-78.4615
East Greenville,41,40.4057,-75.5059
Stewartsville,49,39.7551,-94.4987
Whitehall,176,39.9682,-82.8833
Seven Valleys,12,39.8545,-76.7667
York Haven,50,40.1106,-76.7149
Villanova,88,40.0405,-75.341
Sykesville,116,39.3716,-76.9716
Princeton Junction,4,40.3206,-74.6237
Fairfax Station,44,38.7942,-77.3358
Irwin,62,40.325,-79.6996
Cabin John,56,38.9742,-77.1632
Maple Glen,22,40.1778,-75.1793
Mount Airy,113,36.5083,-80.6155
Lovettsville,35,39.2731,-77.64
Montgomery Village,10,39.1788,-77.1954
Joppa,188,34.2982,-86.5506
Ronks,42,40.0267,-76.171
Marlton,97,39.9014,-74.9294
Indiana,10,40.622,-79.1552
Zelienople,14,40.7886,-80.1428
Westover,11,39.6329,-79.9882
Dravosburg,8,40.3508,-79.8907
West Berlin,24,39.8104,-74.9407
Jonestown,70,30.4755,-97.9296
Burgettstown,17,40.3814,-80.3926
Centre Hall,11,40.8448,-77.685
Delta,38,38.756,-108.0772
Bainbridge,22,30.9052,-84.5732
Great Falls,77,47.5022,-111.2996
East Berlin,41,39.9368,-76.9793
Mount Jackson,43,38.739,-78.651
Tuscarora,2,40.7688,-76.038
West Decatur,4,40.929,-78.2827
Wampum,21,40.8863,-80.3393
Fallston,68,39.5332,-76.4452
Bellefonte,68,40.9141,-77.7683
Bristow,17,35.8336,-96.3944
Downingtown,129,40.0076,-75.7019
Derwood,72,39.1136,-77.151
Waldorf,54,38.6085,-76.9194
Fleetwood,30,40.4565,-75.8209
Kensington,36,41.6284,-72.7686
Ashton,13,44.0734,-111.4482
Edinburg,59,26.3196,-98.1597
Warrington,46,30.3835,-87.2946
District Heights,53,38.8588,-76.8885
Queenstown,44,38.9868,-76.1633
Cape May Court House,76,39.0788,-74.8205
Hollidaysburg,2,40.4311,-78.393
Chadds Ford,12,39.8742,-75.604
Thurmont,59,39.621,-77.4076
Randallstown,7,39.3723,-76.8024
Cockeysville,87,39.4804,-76.6294
Mount Wolf,22,40.0616,-76.7053
Milmay,1,39.4433,-74.8668
Phoenixville,101,40.1359,-75.5201
Hockessin,13,39.7837,-75.6815
Mont Clare,21,40.1378,-75.4983
Claymont,34,39.8032,-75.4607
Glen Hope,3,40.8009,-78.4985
Gibsonia,64,40.6322,-79.9684
Monongahela,10,40.1955,-79.9222
Philipsburg,40,40.8952,-78.2146
Birdsboro,48,40.2619,-75.8099
West Chester,206,39.9601,-75.6058
Donegal,31,40.112,-79.3808
Pennsburg,102,40.3936,-75.4965
Swarthmore,7,39.9023,-75.3488
Leesport,13,40.4451,-75.9684
Quakertown,79,40.4398,-75.3455
Monroeville,91,40.4262,-79.7605
Emmaus,17,40.5352,-75.4978
Red Hill,14,33.7777,-79.0111
Havre de Grace,104,39.548,-76.1146
Bentonville,3,36.3547,-94.2305
Cresson,2,40.4626,-78.5866
Gore,12,35.5418,-95.1129
Highspire,24,40.2085,-76.7851
Enola,49,40.2908,-76.9348
Conway,408,35.0753,-92.4692
Trevorton,4,40.7841,-76.6711
Newville,28,40.1702,-77.4016
Hampstead,26,34.3627,-77.7318
Martinsburg,16,39.4582,-77.9776
Coalport,7,40.7476,-78.532
Towson,174,39.3944,-76.619
Hellertown,38,40.5812,-75.3378
Mickleton,9,39.7921,-75.2437
New Stanton,44,40.2237,-79.6086
Breinigsville,22,40.5394,-75.6347
Bally,2,40.4004,-75.5875
Front Royal,43,38.926,-78.1838
Sicklerville,61,39.7452,-74.9934
Severna Park,23,39.087,-76.5687
Trappe,39,40.1991,-75.4754
Denver,3270,39.762,-104.8758
New Castle,246,40.9956,-80.3458
Williamsport,88,41.2399,-77.037
Lemoyne,101,40.2442,-76.8991
Perry Hall,34,39.4068,-76.478
Millville,65,39.3903,-75.0561
Mount Holly,74,35.3136,-81.0073
Thorofare,11,39.8515,-75.1988
Bloomsbury,21,40.6537,-75.084
Gibbstown,18,39.8233,-75.2782
Runnemede,42,39.8522,-75.074
Westville,60,41.5376,-86.9049
Stroudsburg,46,40.9838,-75.1972
Brookeville,7,39.1808,-77.0591
Strasburg,91,38.9961,-78.3549
Robesonia,5,40.3495,-76.1391
Toms Brook,35,38.9465,-78.44
Finleyville,13,40.2528,-80.002
Reisterstown,98,39.455,-76.814
Phoenix,5170,33.5722,-112.0892
Gap,41,39.9888,-76.0212
Mount Ephraim,65,39.8805,-75.0918
New Ringgold,3,40.6892,-75.9928
Deale,1,38.791,-76.5469
Atco,12,39.7682,-74.8618
Cheswick,17,40.5428,-79.8013
New Tripoli,4,40.6773,-75.7498
Greencastle,38,39.6432,-86.8418
Blandon,8,40.4447,-75.8799
Swedesboro,65,39.7459,-75.3117
Boyds,24,48.7245,-118.1321
Church Hill,8,36.5204,-82.7151
Falling Waters,15,39.5637,-77.8875
Rising Sun,15,39.7003,-76.0587
Quarryville,42,39.8957,-76.1617
Berryville,17,36.371,-93.5704
Smithsburg,25,39.6559,-77.575
Littlestown,23,39.7452,-77.0892
Shamokin,22,40.7881,-76.555
Fredericktown,5,37.5644,-90.2988
New Galilee,13,40.8335,-80.4011
Mantua,13,38.8526,-77.2571
McAdoo,8,40.9009,-75.9924
Lehighton,39,40.8306,-75.7165
Gardners,3,40.0063,-77.2084
Capitol Heights,60,38.8765,-76.9075
Takoma Park,11,38.981,-77.0028
Alburtis,2,40.509,-75.6001
Schuylkill Haven,5,40.6283,-76.1729
Federalsburg,10,38.6929,-75.7727
Harwood,17,46.9762,-96.8802
Leetsdale,4,40.5656,-80.2143
Stephens City,24,39.0902,-78.223
Oakton,10,38.8887,-77.3016
Coaldale,1,40.8197,-75.9161
Apollo,25,40.5848,-79.5647
Clear Spring,23,39.6562,-77.9304
Aspers,3,39.9792,-77.2276
Kutztown,36,40.5212,-75.7772
Big Pool,18,39.6251,-78.0161
Kingsville,10,27.5094,-97.861
Wilmerding,3,40.3942,-79.8101
Shoemakersville,8,40.5004,-75.97
Rocky Ridge,7,39.9197,-111.8258
Pennington,23,40.3262,-74.7908
Douglassville,26,40.2577,-75.7251
Taneytown,10,39.6569,-77.1683
Bulger,4,40.3767,-80.323
Woodbine,118,39.2283,-74.8096
Cedarville,8,39.7471,-83.8109
Hummelstown,11,40.2657,-76.7126
Odenton,23,39.0661,-76.6938
Ocean View,15,38.5355,-75.0984
Bentleyville,22,40.1178,-80.0044
Middle River,23,39.3436,-76.4253
Waynesburg,16,39.8983,-80.1855
Derry,49,40.3335,-79.3011
Leechburg,20,40.6302,-79.6022
Hallam,4,40.0024,-76.6041
Evans City,10,40.7685,-80.0583
North East,85,39.6076,-75.9414
Canonsburg,53,40.2643,-80.1867
Saylorsburg,8,40.8998,-75.3179
Gallitzin,1,40.481,-78.5547
Cherry Tree,4,35.7454,-94.6428
Pedricktown,13,39.7658,-75.4085
Creighton,13,42.4649,-97.9071
Spencerville,5,40.7079,-84.3526
Aliquippa,11,40.6155,-80.2547
New Alexandria,12,40.3945,-79.4175
Union Bridge,21,39.5731,-77.1744
Darlington,142,34.3015,-79.867
Woodsboro,8,28.2379,-97.3254
Lincoln University,2,39.8064,-75.9279
Atglen,2,39.9473,-75.9754
Biglerville,13,39.9303,-77.2462
Avella,7,40.2737,-80.4672
Schellsburg,1,40.0481,-78.6434
Portersville,12,40.9243,-80.1469
Nazareth,16,40.74,-75.3131
Denton,227,33.2175,-97.1418
Bechtelsville,7,40.371,-75.6307
New Philadelphia,7,40.486,-81.4401
Elysburg,8,40.868,-76.5492
Delano,78,35.7662,-119.2635
Bangor,25,44.8323,-68.7906
Crofton,16,39.0144,-76.68
Grantsville,31,40.6148,-112.4777
Lonaconing,6,39.566,-78.979
Elk Garden,1,39.3862,-79.1556
Turtle Creek,8,40.4085,-79.8214
Olney,12,39.1465,-77.0715
McKeesport,16,40.3418,-79.844
Drexel Hill,5,39.9495,-75.3038
Schnecksville,8,40.6699,-75.6115
Frackville,8,40.7833,-76.2329
The Plains,29,39.3655,-82.1343
Christiana,14,35.7193,-86.4129
Uniontown,19,39.8993,-79.7246
Mays Landing,58,39.4506,-74.7098
Yoe,9,39.9096,-76.6365
Womelsdorf,6,40.3655,-76.1864
Bernville,31,40.4334,-76.1107
Abbottstown,18,39.8843,-76.9888
Paradise,33,36.0872,-115.1355
Glassboro,24,39.7014,-75.1113
East Petersburg,32,40.1006,-76.3511
Amity,13,45.1153,-123.2033
Catasauqua,1,40.6531,-75.4643
Point of Rocks,10,39.2782,-77.5291
Hancock,68,47.1367,-88.5979
Newfield,15,39.5484,-75.0167
Mahaffey,16,40.8747,-78.7276
Export,20,40.417,-79.6232
Wind Gap,5,40.8484,-75.2917
Gordonville,18,40.0211,-76.1366
Washington Boro,20,40.0017,-76.4671
Hershey,12,40.2806,-76.6458
Hopewell,20,37.2915,-77.2985
Hopwood,3,39.8773,-79.7017
Connellsville,3,40.0161,-79.5893
Franklinville,20,39.6194,-75.0738
Eighty Four,15,40.1777,-80.1303
Imperial,17,32.839,-115.572
Emmitsburg,8,39.7051,-77.3217
Beaver Falls,26,40.7619,-80.3226
Marmora,15,39.2594,-74.657
Penns Grove,42,39.7275,-75.4691
Delmont,10,40.4145,-79.5728
Coatesville,25,39.9849,-75.82
Elizabethville,1,40.5472,-76.816
Spring City,11,40.1768,-75.5466
Dauphin,12,40.3683,-76.9296
Boonsboro,24,39.5078,-77.6585
Pen Argyl,7,40.8676,-75.2534
Broadlands,14,39.0168,-77.5167
Myerstown,17,40.3722,-76.3055
Pine Hill,8,39.7879,-74.9857
Luray,18,38.665,-78.4546
Rural Valley,5,40.7991,-79.3149
Darby,9,39.921,-75.261
Tamaqua,1,40.8033,-75.9344
Buena,1,39.5282,-74.9448
New Hope,3,45.0375,-93.3869
Hedgesville,2,39.5544,-77.9944
Jobstown,5,40.0334,-74.6945
Hickory,62,35.741,-81.3223
Perkasie,6,40.372,-75.292
Coraopolis,62,40.5148,-80.1627
Dorothy,2,39.4054,-74.8333
Tremont,38,40.5253,-89.4888
Kittanning,14,40.8279,-79.5233
Fairless Hills,8,40.1783,-74.8524
Harmony,18,41.8964,-71.6052
Lumberton,31,34.6312,-79.0186
Kempton,2,40.2881,-86.2294
Forest Hill,46,32.6619,-97.2662
Lansdowne,7,39.0844,-77.4839
Rohrersville,5,39.4348,-77.6655
Cleona,4,40.3385,-76.4771
Wernersville,2,40.3302,-76.0818
Magnolia,28,33.2775,-93.2261
Mohnton,14,40.2872,-75.987
Somerdale,14,39.8455,-75.0218
Burtonsville,34,39.1166,-76.9356
Haddon Heights,13,39.8792,-75.0645
White Oak,10,39.2106,-84.606
Glenville,23,41.0351,-73.6657
Duncannon,16,40.3952,-77.0277
Glassport,2,40.3261,-79.8861
White Marsh,20,39.3819,-76.4574
Selinsgrove,10,40.8003,-76.8646
Smithton,13,38.4159,-89.9902
Accident,3,39.6257,-79.32
Murrysville,22,40.4456,-79.6554
Kirkwood,25,38.5788,-90.4203
New Bethlehem,7,41.0044,-79.3283
Hyndman,7,39.8207,-78.7214
Malaga,13,39.5787,-75.0589
Vandergrift,5,40.5994,-79.5746
Cordova,87,60.5347,-145.6087
Coal Center,5,40.07,-79.9009
Freeland,7,43.5198,-84.1124
Queen Anne,8,38.9021,-76.6973
Jacobus,3,39.8825,-76.7121
Oaklyn,18,39.9023,-75.0813
Williamstown,39,39.6874,-74.9786
Orwigsburg,1,40.6541,-76.104
South Park,3,43.4234,-110.7994
Charleroi,22,40.1384,-79.9002
Sabillasville,9,39.6994,-77.4573
Ewing,10,40.0088,-91.7147
Zionsville,97,39.9897,-86.3182
Newmanstown,4,40.3515,-76.2117
Bear,62,39.6189,-75.6808
Vanderbilt,2,28.8208,-96.6097
Lambertville,6,41.7484,-83.6244
Baden,3,40.6396,-80.2228
Radnor,4,40.3852,-83.1459
Inwood,6,40.6219,-73.7506
Adelphi,10,39.0017,-76.9649
Coopersburg,34,40.5102,-75.3915
Seward,3,40.9099,-97.0957
Cochranville,4,39.8905,-75.9241
Fredericksburg,320,38.2992,-77.4872
Little Orleans,4,39.63,-78.3949
Lewistown,10,40.5964,-77.573
Chicora,9,40.9505,-79.7401
Sellersville,12,40.36,-75.3083
Summerhill,2,40.3764,-78.7617
Ambridge,4,40.5921,-80.2265
Monaca,7,40.6833,-80.2736
Cooksville,8,40.5428,-88.7146
Fawn Grove,9,39.7312,-76.4521
Upperville,3,38.9926,-77.8821
Boswell,1,40.1615,-79.0274
Sudlersville,20,39.1833,-75.8535
Spring Mills,38,40.8534,-77.5654
Pemberton,6,44.0085,-93.7837
Kulpmont,1,40.7954,-76.4721
Avondale,194,33.3873,-112.3235
Rawlings,7,39.5403,-78.8858
Mifflintown,1,40.5713,-77.3951
Boalsburg,5,40.7783,-77.7734
Braddock,4,38.8308,-77.3565
Croydon,4,40.0911,-74.8975
Prospect,33,38.3471,-85.6103
Manassas Park,2,38.7709,-77.4429
Paoli,4,40.042,-75.4912
Fairmont,32,39.4768,-80.1491
Ellwood City,5,40.8619,-80.2829
New Kensington,24,40.5712,-79.7523
Oaks,6,36.1698,-94.8529
Tower City,1,40.5884,-76.553
Duncansville,8,40.4263,-78.4303
Ebensburg,11,40.4884,-78.7264
Industry,5,40.6595,-80.4115
Spring House,7,40.185,-75.2267
Liverpool,160,43.1065,-76.2095
Maytown,2,40.0791,-76.5791
Grasonville,7,38.9559,-76.1947
Frostburg,11,39.6506,-78.9269
Claysville,16,40.1199,-80.4131
Manns Choice,18,40.0035,-78.5912
Bethel Park,11,40.3238,-80.0364
Duquesne,12,40.3732,-79.8502
Lindenwold,9,39.8173,-74.9898
Homer City,3,40.5403,-79.1597
Devon,1,40.0496,-75.4272
Home,6,47.279,-122.7745
Chestertown,23,39.2182,-76.0714
Brodheadsville,3,40.9267,-75.4017
Howard,12,44.5703,-88.0928
Markleysburg,1,39.7364,-79.4516
Macungie,3,40.5165,-75.5545
Shenandoah,22,30.4019,-91.002
Paulsboro,13,39.84,-75.2397
White Hall,9,34.2741,-92.1006
Frenchtown,3,47.0287,-114.2461
Burnham,1,41.6375,-87.5447
Fairplay,11,33.6187,-84.8605
Enon Valley,7,40.8559,-80.4565
Monessen,3,40.1519,-79.8828
Villas,3,26.5504,-81.8678
Port Carbon,1,40.6969,-76.1666
Worton,1,39.2718,-76.0933
Owings,6,38.7117,-76.6055
Harrisonville,16,38.653,-94.3467
Klingerstown,1,40.6588,-76.6931
Estell Manor,1,39.3587,-74.7752
Blairsville,13,40.4326,-79.2599
Port Trevorton,3,40.6924,-76.894
Rio Grande,16,39.0193,-74.8787
Boyce,4,31.3907,-92.67
Wyomissing,2,40.3317,-75.9703
Cecil,6,44.8108,-88.4485
Slatington,11,40.7543,-75.6114
Austin,25917,30.3005,-97.7522
Fort Worth,4518,32.7817,-97.3474
Garland,479,32.91,-96.6304
Houston,45870,29.786,-95.3885
Katy,202,29.7905,-95.8353
Mesquite,921,32.7602,-96.5865
Waxahachie,92,32.4035,-96.8446
Manor,747,30.3562,-97.5227
Keller,8,32.9335,-97.2256
Hutchins,49,32.6421,-96.7093
Grand Prairie,975,32.6871,-97.0208
Humble,575,29.9921,-95.2655
Pearland,100,29.5581,-95.3218
Duncanville,245,32.646,-96.9127
Bellaire,259,29.704,-95.4621
Pflugerville,914,30.4515,-97.6018
Irving,1256,32.8583,-96.9702
Round Rock,261,30.527,-97.6642
Kyle,40,29.9932,-97.8852
North Richland Hills,135,32.8604,-97.218
Grapevine,250,32.9343,-97.0742
Coupland,17,30.4568,-97.3979
Buda,124,30.0758,-97.8487
New Braunfels,143,29.6994,-98.1148
Forney,36,32.744,-96.4529
Jarrell,14,30.8103,-97.6144
Spring,567,30.0613,-95.383
Balch Springs,192,32.7194,-96.6151
Manvel,74,29.4798,-95.3635
Stafford,382,29.6271,-95.5654
Hillsboro,106,45.5273,-122.936
Woodway,4,31.4988,-97.2314
South Houston,15,29.6611,-95.2285
Cedar Park,207,30.5105,-97.8197
Weatherford,80,32.7536,-97.7723
Sugar Land,115,29.5935,-95.6358
Tomball,59,30.0951,-95.6194
Richland Hills,14,32.8095,-97.2273
Rowlett,128,32.9155,-96.5489
Live Oak,112,36.986,-121.9804
Alvarado,26,32.4068,-97.2149
Millsap,3,32.7493,-98.0117
Haltom City,99,32.8176,-97.2707
Azle,6,32.8955,-97.5379
Manchaca,61,30.1353,-97.8364
Leander,105,30.5728,-97.8618
Rosenberg,41,29.5456,-95.8223
Hurst,303,32.8353,-97.1809
Italy,15,32.1857,-96.8867
Rockwall,116,32.9169,-96.4374
Aledo,31,32.6974,-97.6069
Euless,186,32.8508,-97.08
Madisonville,10,37.3409,-87.5034
Flatonia,3,29.6888,-97.1059
Kingwood,249,39.4719,-79.6822
Richardson,425,32.9716,-96.7093
Converse,47,29.5091,-98.3084
Porter,26,41.6257,-87.0801
Lakeway,15,30.3544,-97.9864
Conroe,157,30.3238,-95.4824
Kennedale,6,32.6434,-97.2172
Coppell,34,32.9639,-96.9903
Volente,13,30.4454,-97.908
Terrell,28,32.734,-96.2931
Hutto,19,30.5396,-97.544
Lago Vista,16,30.4519,-97.9908
Tyler,55,32.3184,-95.3062
Missouri City,97,29.563,-95.5365
Buffalo,1042,42.9018,-78.8487
Johnson City,425,36.3406,-82.3806
Seguin,19,29.5891,-97.9676
Brookshire,43,29.7824,-95.9514
West,13,31.8032,-97.0941
Dripping Springs,23,30.196,-98.0938
Sunset Valley,19,30.2258,-97.8158
Ennis,26,32.3254,-96.6347
Bruceville,22,38.758,-87.4154
Rice,14,45.7525,-94.2317
Burleson,96,32.517,-97.3344
Alba,2,37.2372,-94.4176
Smithville,8,39.3919,-94.5747
Burnet,14,30.7496,-98.2383
Granbury,8,32.4475,-97.7702
Hudson Oaks,3,32.7509,-97.7001
Schertz,128,29.565,-98.2535
Haslet,5,32.9609,-97.3387
Bastrop,15,32.7748,-91.9078
Lockhart,13,28.627,-81.4354
Benbrook,3,32.6788,-97.4637
Rosharon,46,29.35,-95.453
West Lake Hills,104,30.292,-97.8083
College Station,8,30.5852,-96.2959
Forreston,14,42.1273,-89.5784
Mabank,2,32.3685,-96.1138
Teague,10,31.6296,-96.2802
Elmendorf,19,29.258,-98.3218
New Waverly,11,30.5374,-95.4822
Willis,32,30.4314,-95.4831
Wilmer,22,32.5983,-96.6815
Ferris,18,32.5369,-96.6738
Colleyville,1,32.8913,-97.1486
Marble Falls,25,30.5649,-98.2768
Schulenburg,5,29.682,-96.9075
Round Mountain,10,30.4299,-98.3607
Salado,16,30.947,-97.529
Abbott,18,31.8868,-97.0799
Meadows Place,1,29.6513,-95.5874
Pantego,1,32.7149,-97.1538
Cleburne,4,32.3568,-97.4151
Blanco,4,30.0987,-98.4169
Waller,20,47.2035,-122.37
Sealy,20,29.7662,-96.163
Wills Point,13,32.7093,-96.0052
Lindale,10,32.4933,-95.4069
Creedmoor,24,36.1224,-78.6757
Windcrest,13,29.515,-98.3818
Liberty Hill,5,30.6638,-97.9063
Kaufman,2,32.5766,-96.3158
Wimberley,2,29.9848,-98.0906
Cedar Hill,36,32.581,-96.9591
Lorena,6,31.3818,-97.2127
Corsicana,18,32.0824,-96.4665
Bluff Dale,1,32.3497,-98.0249
Cedar Creek,16,30.0811,-97.518
Weimar,6,29.7,-96.7773
Huntsville,38,34.6981,-86.6412
Streetman,4,31.8787,-96.3306
Grandview,63,38.8802,-94.5227
Eustace,1,32.3076,-96.0138
Navasota,4,30.3873,-96.0901
Frankston,5,32.0561,-95.5043
Crandall,5,32.6233,-96.4525
Springtown,2,32.9693,-97.6804
Waelder,6,29.6943,-97.2972
Spring Branch,2,29.8849,-98.4127
Plantersville,2,34.2103,-88.6655
Van,3,32.5242,-95.6373
Yoakum,1,29.2934,-97.1468
Royse City,13,32.9762,-96.3175
Lipan,1,32.5187,-98.047
Bryan,16,30.665,-96.3807
Hearne,3,30.877,-96.5956
Crowley,9,32.5781,-97.3585
Kempner,1,31.0755,-97.9725
Iredell,1,31.9865,-97.8719
Alvin,22,29.3872,-95.2938
Bee Cave,7,30.3084,-97.9629
Bedias,1,30.7792,-95.9469
East Bernard,3,29.5241,-96.0622
Bremond,2,31.1657,-96.676
Bulverde,7,29.7744,-98.4364
Luling,13,29.9008,-90.3523
Ranger,5,32.4693,-98.6751
Needville,3,29.3957,-95.8386
Briggs,1,35.9202,-94.8825
Killeen,5,31.0753,-97.7297
Seagoville,10,32.653,-96.5456
Nixon,3,29.2698,-97.7658
Granite Shoals,1,30.5894,-98.3671
Selma,138,36.5715,-119.6143
Milano,1,30.7083,-96.8593
Beasley,3,29.4952,-95.9154
Leona,2,31.1537,-95.976
Driftwood,1,30.133,-98.0373
Kingsbury,2,38.9909,-119.8837
Santo,2,32.6056,-98.2138
Cibolo,2,29.5634,-98.2115
Olympia,424,47.0417,-122.8959
Seattle,11377,47.6211,-122.3244
Spokane,1269,47.6671,-117.433
Federal Way,465,47.3091,-122.3358
Kent,642,47.3887,-122.2128
Renton,1029,47.4784,-122.1918
Mountlake Terrace,204,47.7921,-122.3077
Lynnwood,557,47.8284,-122.3033
Pacific,100,47.261,-122.2507
Poulsbo,78,47.7417,-122.6407
Port Orchard,82,47.5163,-122.661
